,City,Lat,Lng,Max Temp,Humidity,Cloudiness,Wind Speed,Country,Date
0,Zhaotong,27.3167,103.7167,42.8,62,79,2.08,CN,1643873712
1,Avarua,-21.2078,-159.775,78.85,89,20,12.66,CK,1643873714
2,Kapaa,22.0752,-159.319,75.18,72,100,4.61,US,1643873716
3,Tucumã,-0.1833,-50.05,75.04,93,100,6.44,BR,1643873646
4,Punta Arenas,-53.15,-70.9167,42.91,65,75,5.75,CL,1643873719
5,Portland,45.5234,-122.6762,45.18,95,100,1.99,US,1643873561
6,Bredasdorp,-34.5322,20.0403,63.28,75,75,17.25,ZA,1643873721
7,Dikson,73.5069,80.5464,-10.75,98,93,10.87,RU,1643873723
8,Ushuaia,-54.8,-68.3,40.66,65,75,20.71,AR,1643873543
9,Minnedosa,50.2453,-99.8436,-34.04,93,5,7.02,CA,1643873726
10,College,64.8569,-147.8028,-4.34,69,40,8.05,US,1643873589
11,Busselton,-33.65,115.3333,97.05,30,38,7.76,AU,1643873579
12,Kavaratti,10.5669,72.642,80.1,69,19,7.09,IN,1643873730
13,Mataura,-46.1927,168.8643,56.48,66,100,4.54,NZ,1643873732
14,Ust'-Barguzin,53.45,108.9833,-0.15,86,99,2.37,RU,1643873733
15,Bluff,-46.6,168.3333,56.8,61,100,14.83,NZ,1643873735
16,Ribeira Grande,38.5167,-28.7,55.8,82,20,9.22,PT,1643873737
17,Rincon,32.296,-81.2354,58.86,98,100,5.75,US,1643873739
18,Hasaki,35.7333,140.8333,55.29,39,41,3.47,JP,1643873741
19,Mazatlán,23.2167,-106.4167,67.91,83,0,0.0,MX,1643873599
20,Tiksi,71.6872,128.8694,-5.15,96,95,7.27,RU,1643873743
21,Rikitea,-23.1203,-134.9692,77.52,77,100,10.45,PF,1643873745
22,Nikolskoye,59.7035,30.7861,17.49,96,93,1.23,RU,1643873747
23,Saskylakh,71.9167,114.0833,-33.11,100,16,2.1,RU,1643873749
24,Atuona,-9.8,-139.0333,78.6,76,96,17.85,PF,1643873750
25,Butaritari,3.0707,172.7902,82.11,77,100,13.53,KI,1643873752
26,Bethel,41.3712,-73.414,39.31,92,100,0.0,US,1643873754
27,Shahr-e Kord,32.3256,50.8644,38.46,59,32,3.78,IR,1643873755
28,Qaanaaq,77.484,-69.3632,-12.82,74,99,8.12,GL,1643873757
29,Ixtapa,20.7,-105.2,66.22,89,1,3.0,MX,1643873759
30,Weligama,5.9667,80.4167,84.36,58,7,7.78,LK,1643873761
31,Cabo San Lucas,22.8909,-109.9124,70.52,70,100,5.97,MX,1643873513
32,Uthal,25.8072,66.6219,76.84,12,0,10.87,PK,1643873763
33,Hermanus,-34.4187,19.2345,64.9,80,99,15.05,ZA,1643873765
34,Lorengau,-2.0226,147.2712,80.13,79,100,7.72,PG,1643873767
35,La Santisima Trinidad,-14.8333,-64.9,72.18,98,68,3.58,BO,1643873769
36,Vaini,-21.2,-175.2,78.96,94,40,2.3,TO,1643873770
37,São José da Coroa Grande,-8.8978,-35.1478,78.78,76,72,8.19,BR,1643873772
38,Cape Town,-33.9258,18.4232,65.88,90,75,7.0,ZA,1643873774
39,Carnarvon,-24.8667,113.6333,86.07,66,0,20.71,AU,1643873776
40,Orange Cove,36.6244,-119.3137,44.26,73,0,4.0,US,1643873777
41,Hilo,19.7297,-155.09,70.79,89,75,3.44,US,1643873779
42,Bonavista,48.6499,-53.1147,30.11,75,8,20.94,CA,1643873781
43,George Town,5.4112,100.3354,93.13,69,40,1.01,MY,1643873651
44,Port Alfred,-33.5906,26.891,73.44,86,99,10.92,ZA,1643873784
45,Santa Cruz del Sur,20.7147,-77.9956,71.91,86,1,12.73,CU,1643873786
46,Mirny,62.5353,113.9611,-5.48,98,100,3.27,RU,1643873787
47,Airai,-8.9266,125.4092,68.63,75,75,3.85,TL,1643873789
48,Vestmannaeyjar,63.4427,-20.2734,28.58,67,100,18.97,IS,1643873525
49,Ostrovnoy,68.0531,39.5131,19.96,87,100,13.76,RU,1643873792
50,Nizhniy Kuranakh,58.8353,125.4869,-5.37,97,100,5.19,RU,1643873794
51,Sakakah,29.9697,40.2064,63.97,31,89,15.03,SA,1643873795
52,Tavrichanka,43.3378,131.8639,19.26,60,95,9.31,RU,1643873797
53,Torbay,47.6666,-52.7314,27.75,86,75,12.66,CA,1643873777
54,Ambilobe,-13.2,49.05,84.7,69,100,8.34,MG,1643873799
55,Lubango,-14.9172,13.4925,69.44,34,55,1.14,AO,1643873735
56,Alta Floresta,-9.8756,-56.0861,70.88,95,100,1.48,BR,1643873802
57,Zimmi,7.3153,-11.3061,71.94,93,44,2.26,SL,1643873804
58,Botwood,49.1499,-55.3482,27.9,83,96,13.76,CA,1643873806
59,Marzuq,14.4,46.4667,72.86,19,6,7.07,YE,1643873807
60,Thompson,55.7435,-97.8558,-20.04,76,0,9.22,CA,1643873809
61,Kattivākkam,13.2167,80.3167,87.89,64,5,8.88,IN,1643873810
62,Katobu,-4.9408,122.5276,84.38,64,100,6.96,ID,1643873812
63,Hithadhoo,-0.6,73.0833,81.9,69,51,1.86,MV,1643873813
64,Bashtanka,47.4072,32.4387,29.88,90,100,5.84,UA,1643873815
65,Albany,42.6001,-73.9662,44.8,86,100,2.8,US,1643873816
66,Norman Wells,65.282,-126.8329,-30.96,68,40,3.44,CA,1643873818
67,Gramada,43.8344,22.6586,37.26,64,15,15.35,BG,1643873819
68,Cervo,43.6702,-7.4101,50.79,74,96,6.42,ES,1643873821
69,Aklavik,68.2191,-135.0107,-22.97,98,100,4.85,CA,1643873823
70,Den Helder,52.9599,4.7593,46.98,94,75,18.01,NL,1643873824
71,Arraial do Cabo,-22.9661,-42.0278,74.37,88,99,2.44,BR,1643873682
72,Nueva Loja,0.0847,-76.8828,69.48,79,83,0.92,EC,1643873827
73,Kavieng,-2.5744,150.7967,80.28,79,100,12.26,PG,1643873829
74,Lompoc,34.6391,-120.4579,52.11,56,0,4.61,US,1643873799
75,Nanortalik,60.1432,-45.2371,26.08,88,100,5.35,GL,1643873832
76,Tuktoyaktuk,69.4541,-133.0374,-13.59,97,100,10.51,CA,1643873833
77,Yumen,40.2833,97.2,28.65,35,26,7.18,CN,1643873835
78,Mar del Plata,-38.0023,-57.5575,72.09,83,100,3.0,AR,1643873607
79,Kalemie,-5.9475,29.1947,70.81,87,100,3.8,CD,1643873838
80,Tsimmerbude,54.675,20.1347,30.25,93,97,10.58,RU,1643873839
81,Cherskiy,68.75,161.3,-21.87,89,92,0.36,RU,1643873841
82,Makokou,0.5738,12.8642,76.71,75,90,3.76,GA,1643873843
83,Petropavlovsk-Kamchatskiy,53.0452,158.6483,25.39,74,75,2.24,RU,1643873845
84,Minden,52.2833,8.9167,47.01,94,75,10.36,DE,1643873630
85,Chui,-33.6971,-53.4616,68.79,95,36,7.47,UY,1643873848
86,Mahébourg,-20.4081,57.7,79.25,94,75,26.46,MU,1643873849
87,Makakilo City,21.3469,-158.0858,72.28,70,0,3.44,US,1643873851
88,Itarema,-2.9248,-39.9167,76.06,89,99,7.61,BR,1643873853
89,Lillooet,50.6856,-121.942,20.16,94,97,4.97,CA,1643873854
90,Hauterive,46.0901,3.4459,40.75,87,100,4.41,FR,1643873856
91,Vilyuysk,63.7553,121.6247,-18.72,98,93,4.09,RU,1643873857
92,Zyryanka,65.75,150.85,-23.01,95,15,8.88,RU,1643873859
93,San Quintín,30.4833,-115.95,55.42,61,0,7.36,MX,1643873861
94,Chake Chake,-5.2459,39.7666,87.06,60,100,10.27,TZ,1643873862
95,Tasiilaq,65.6145,-37.6368,14.16,60,55,7.72,GL,1643873864
96,Yellowknife,62.456,-114.3525,-30.59,80,0,11.5,CA,1643873810
97,Provideniya,64.3833,-173.3,2.23,69,98,24.85,RU,1643873867
98,Tázlár,46.5482,19.5144,36.79,68,5,10.71,HU,1643873869
99,Abu Samrah,35.3029,37.1841,53.33,46,97,12.26,SY,1643873870
100,Lebu,-37.6167,-73.65,56.8,95,15,8.81,CL,1643873872
101,Qujing,25.4833,103.7833,55.69,47,97,16.53,CN,1643873874
102,Khatanga,71.9667,102.5,-33.7,99,24,1.12,RU,1643873876
103,Ugoofaaru,5.6667,73.0,81.54,70,22,4.85,MV,1643873878
104,Zeya,53.75,127.2667,-0.45,74,24,5.01,RU,1643873879
105,Longyearbyen,78.2186,15.6401,19.24,49,0,4.61,SJ,1643873881
106,Acapulco de Juárez,16.8634,-99.8901,73.22,83,0,2.3,MX,1643873883
107,Chapais,49.7834,-74.8492,-0.62,91,100,7.45,CA,1643873724
108,Ķegums,56.7451,24.7244,22.33,91,89,4.85,LV,1643873886
109,Tautira,-17.7333,-149.15,82.0,78,33,20.04,PF,1643873824
110,Hofn,64.2539,-15.2082,28.18,66,100,17.94,IS,1643873888
111,Tadotsu,34.275,133.75,48.54,38,100,12.75,JP,1643873787
112,Harper,4.375,-7.7169,78.13,80,39,3.36,LR,1643873891
113,Ahipara,-35.1667,173.1667,68.47,89,76,11.1,NZ,1643873893
114,Faanui,-16.4833,-151.75,80.71,77,14,19.86,PF,1643873894
115,Port Hardy,50.6996,-127.4199,41.76,93,100,13.8,CA,1643873896
116,Severo-Kuril'sk,50.6789,156.125,29.82,82,100,11.77,RU,1643873898
117,Angoram,-4.0625,144.0661,75.52,92,100,3.56,PG,1643873900
118,Synya,65.3718,58.0387,19.74,94,100,6.13,RU,1643873901
119,Isla Mujeres,21.2311,-86.731,78.85,84,0,15.35,MX,1643873903
120,Yaan,7.3833,8.5667,81.32,11,33,9.71,NG,1643873905
121,Laguna,38.421,-121.4238,52.41,58,0,3.0,US,1643873906
122,Pacific Grove,36.6177,-121.9166,52.63,40,0,1.01,US,1643873908
123,Agüimes,27.9054,-15.4461,66.67,60,0,12.66,ES,1643873910
124,Oranjemund,-28.55,16.4333,70.83,73,80,6.8,NA,1643873912
125,Alekseyevka,50.6309,38.6903,33.08,100,100,5.55,RU,1643873913
126,Uddevalla,58.3478,11.9424,35.22,93,100,3.58,SE,1643873915
127,Yanam,16.7333,82.2167,82.8,47,30,8.7,IN,1643873917
128,Prescott Valley,34.5894,-112.3252,29.97,38,0,4.0,US,1643873918
129,Hokitika,-42.7167,170.9667,65.46,99,100,9.08,NZ,1643873920
130,Katsuura,35.1333,140.3,52.11,44,84,2.13,JP,1643873922
131,Antalaha,-14.9003,50.2788,84.94,58,100,4.7,MG,1643873924
132,Misratah,32.3754,15.0925,59.74,62,0,19.6,LY,1643873925
133,Bambous Virieux,-20.3428,57.7575,79.21,94,75,26.46,MU,1643873927
134,Narrabri,-30.3167,149.7833,79.52,53,1,5.01,AU,1643873928
135,Flinders,-34.5833,150.8552,73.18,61,74,11.01,AU,1643873930
136,Anadyr,64.75,177.4833,14.5,67,55,26.84,RU,1643873931
137,Batagay,67.6333,134.6333,-32.8,98,94,0.96,RU,1643873933
138,Chu,43.5983,73.7614,39.22,72,86,6.17,KZ,1643873935
139,Menongue,-14.6585,17.691,69.49,49,95,3.15,AO,1643873937
140,Shizunai-furukawachō,42.3339,142.3669,26.24,73,97,16.51,JP,1643873938
141,Kenai,60.5544,-151.2583,21.15,80,0,9.22,US,1643873794
142,Saint Joseph,39.7686,-94.8466,12.4,60,100,14.97,US,1643873918
143,Shache,38.4167,77.2406,35.71,28,100,3.83,CN,1643873942
144,Châteaudun,48.0833,1.3333,42.49,98,100,5.68,FR,1643873944
145,Cuamba,-14.8031,36.5372,81.9,64,81,3.02,MZ,1643873946
146,Fortuna,40.5982,-124.1573,47.93,92,100,5.75,US,1643873947
147,Methóni,36.8197,21.7049,48.06,69,100,9.26,GR,1643873949
148,Esperance,-33.8667,121.9,85.84,52,8,24.58,AU,1643873951
149,Iqaluit,63.7506,-68.5145,5.7,84,100,11.99,CA,1643873952
150,Turmequé,5.3236,-73.4907,45.03,88,100,0.07,CO,1643873954
151,Harrisonburg,38.4496,-78.8689,40.44,89,100,6.91,US,1643873955
152,Saint George,37.1041,-113.5841,34.39,30,0,1.99,US,1643873957
153,Sembakung,3.8167,117.25,89.53,46,35,3.65,ID,1643873959
154,Saint Anthony,45.0205,-93.218,-2.74,66,0,3.0,US,1643873961
155,Comodoro Rivadavia,-45.8667,-67.5,69.66,46,0,12.66,AR,1643873962
156,Sitka,57.0531,-135.33,37.29,93,100,5.75,US,1643873964
157,Kirakira,-10.4544,161.9205,78.28,91,100,8.5,SB,1643873965
158,Moba,33.2288,105.0179,34.25,56,99,2.89,CN,1643873966
159,Mt. Pleasant,32.7941,-79.8626,59.99,95,75,3.0,US,1643873920
160,Barrow,71.2906,-156.7887,-23.78,83,0,3.44,US,1643873702
161,Saint Paul Harbor,57.79,-152.4072,38.71,87,100,11.5,US,1643873970
162,Geraldton,-28.7667,114.6,108.01,11,0,14.97,AU,1643873971
163,Souillac,-20.5167,57.5167,79.36,94,75,26.46,MU,1643873973
164,Jaša Tomić,45.4469,20.8553,36.1,87,99,7.9,RS,1643873975
165,Baruun-Urt,46.6806,113.2792,0.75,81,11,5.64,MN,1643873976
166,Soligalich,59.0778,42.2864,18.41,94,100,5.57,RU,1643873978
167,Tupik,54.4253,119.9327,-6.54,89,30,3.74,RU,1643873979
168,Xichang,27.8964,102.2634,53.94,55,62,5.14,CN,1643873981
169,Jacareacanga,-6.2222,-57.7528,72.48,99,100,1.14,BR,1643873983
170,Jamestown,42.097,-79.2353,37.29,69,100,8.99,US,1643873984
171,Auki,-8.7676,160.7034,77.99,89,100,7.23,SB,1643873986
172,East London,-33.0153,27.9116,72.54,100,20,8.05,ZA,1643873988
173,Klyuchi,52.2667,79.1667,15.21,88,96,3.89,RU,1643873989
174,Manturovo,58.3353,44.7619,16.16,96,99,4.47,RU,1643873991
175,Narsaq,60.9167,-46.05,23.22,93,100,12.01,GL,1643873992
176,Winnemucca,40.973,-117.7357,29.1,58,100,4.61,US,1643873994
177,Taltal,-25.4,-70.4833,64.6,81,9,0.83,CL,1643873995
178,Ararat,39.8317,44.7049,43.7,65,100,1.54,AM,1643873996
179,Adré,13.4667,22.2,73.6,14,0,8.95,TD,1643873998
180,Bandarbeyla,9.4942,50.8122,79.45,58,12,19.71,SO,1643873999
181,Saint-Philippe,-21.3585,55.7679,80.15,96,100,34.47,RE,1643874001
182,Upernavik,72.7868,-56.1549,-8.21,63,100,7.99,GL,1643874003
183,Dingle,10.9995,122.6711,81.79,75,100,13.2,PH,1643874005
184,Salinas,36.6777,-121.6555,52.83,45,0,0.0,US,1643874006
185,Okhotsk,59.3833,143.3,13.73,77,100,13.18,RU,1643874008
186,Erenhot,43.6475,111.9767,7.52,73,5,6.58,CN,1643874010
187,Palanka,45.2508,19.3919,37.94,77,7,11.97,RS,1643874012
188,Gizo Government Station,-8.103,156.8419,80.62,80,100,9.71,SB,1643874013
189,New Norfolk,-42.7826,147.0587,63.66,47,71,4.0,AU,1643874015
190,Churapcha,62.0025,132.4325,-18.22,91,100,4.97,RU,1643874017
191,Tandil,-37.3217,-59.1332,63.82,94,100,5.79,AR,1643874019
192,Henties Bay,-22.116,14.2845,70.86,70,0,3.85,NA,1643874020
193,San Marcos,33.1434,-117.1661,53.98,25,0,3.0,US,1643873981
194,Saint-François,46.4154,3.9054,40.41,99,100,8.05,FR,1643874023
195,Sarankhola,22.3082,89.7897,84.04,36,18,8.86,BD,1643874025
196,Marawi,7.9986,124.2928,72.64,88,100,4.16,PH,1643874027
197,Santa Maria,-29.6842,-53.8069,70.48,70,0,5.12,BR,1643874024
198,Carbonia,39.1672,8.5222,50.0,83,8,4.21,IT,1643874029
199,Batman,37.8874,41.1322,46.2,61,0,3.44,TR,1643874031
200,Riosucio,5.4216,-75.7032,55.78,96,65,0.81,CO,1643874033
201,Camacupa,-12.0167,17.4833,67.46,84,99,4.0,AO,1643874035
202,Vila Franca do Campo,37.7167,-25.4333,59.41,84,44,8.97,PT,1643874036
203,Dudinka,69.4058,86.1778,-15.57,100,100,5.48,RU,1643873993
204,Hobart,-42.8794,147.3294,64.02,59,75,1.01,AU,1643873869
205,Port Elizabeth,-33.918,25.5701,74.1,78,100,12.66,ZA,1643874040
206,Poconé,-16.2567,-56.6228,72.27,95,100,4.68,BR,1643874042
207,Leh,34.1667,77.5833,17.33,86,100,1.92,IN,1643874043
208,São José do Egito,-7.4789,-37.2744,67.5,95,26,4.68,BR,1643874045
209,Labuhan,-6.8844,112.2051,85.5,69,97,8.46,ID,1643873829
210,Saint-Pierre,-21.3393,55.4781,80.24,94,75,44.87,RE,1643874048
211,Rabo de Peixe,37.8,-25.5833,58.51,95,20,11.5,PT,1643874050
212,Navolato,24.7672,-107.6944,63.12,68,100,7.43,MX,1643874051
213,Nyurba,63.2842,118.3319,-19.77,99,100,3.22,RU,1643873804
214,Zhigansk,66.7697,123.3711,-29.81,100,15,3.44,RU,1643874054
215,Sørland,67.667,12.6934,28.26,64,40,14.97,NO,1643874056
216,Clarence Town,-32.5833,151.7833,71.15,73,18,11.72,AU,1643874058
217,Gramsh,40.8697,20.1844,37.94,61,2,3.85,AL,1643874059
218,Novo Oriente,-5.5344,-40.7742,68.85,71,77,2.24,BR,1643874061
219,Qasigiannguit,68.8193,-51.1922,-2.22,67,100,8.52,GL,1643874063
220,Karoi,-16.8099,29.6925,75.15,69,6,8.75,ZW,1643874065
221,Kiruna,67.8557,20.2251,-6.68,84,100,2.3,SE,1643874066
222,Çine,37.6117,28.0614,49.1,87,100,3.56,TR,1643874068
223,West Wendover,40.7391,-114.0733,22.57,48,55,3.29,US,1643874070
224,Safaga,26.7292,33.9365,66.15,30,67,15.9,EG,1643874072
225,Kushima,31.4583,131.2333,47.71,90,100,2.15,JP,1643874073
226,Adrar,20.5022,-10.0711,59.56,18,0,10.98,MR,1643874075
227,Mehamn,71.0357,27.8492,22.91,93,40,2.3,NO,1643874077
228,Samarai,-10.6167,150.6667,82.38,76,100,10.96,PG,1643874079
229,Shatrovo,56.5167,64.6333,24.64,91,100,12.41,RU,1643874080
230,Qaqortoq,60.7167,-46.0333,23.5,90,100,12.03,GL,1643874082
231,Puerto Ayora,-0.7393,-90.3518,73.54,93,17,3.0,EC,1643874084
232,Palmer,42.1584,-72.3287,41.56,86,100,4.61,US,1643874085
233,Guarujá,-23.9931,-46.2564,77.16,26,99,2.68,BR,1643874087
234,Greymouth,-42.4667,171.2,65.86,98,100,7.47,NZ,1643873849
235,Cassilândia,-19.1133,-51.7342,69.82,97,100,3.44,BR,1643874090
236,Krasne,49.9145,24.6134,29.55,83,100,16.33,UA,1643874092
237,Northam,51.0333,-4.2167,46.62,95,94,10.89,GB,1643874093
238,Quibdó,5.6947,-76.6611,72.95,98,97,1.19,CO,1643874095
239,Los Llanos de Aridane,28.6585,-17.9182,64.15,73,20,5.99,ES,1643874097
240,Jardim,-21.4803,-56.1381,71.26,98,71,3.89,BR,1643873989
241,Whitianga,-36.8333,175.7,71.02,88,100,7.2,NZ,1643874100
242,Mossamedes,-15.1961,12.1522,75.38,59,8,7.47,AO,1643874102
243,Tsabong,-26.0217,22.401,74.98,68,80,17.22,BW,1643874103
244,Arrondissement d'Ajaccio,42.0,8.9167,42.85,93,0,8.05,FR,1643874003
245,Lancaster,40.2504,-76.2499,40.71,87,100,1.99,US,1643873982
246,Barra do Garças,-15.89,-52.2567,71.11,97,99,1.59,BR,1643873999
247,Boguchany,58.3814,97.4531,16.38,91,100,3.89,RU,1643874108
248,Cayenne,4.9333,-52.3333,76.08,89,20,5.01,GF,1643874110
249,Champasak,14.75,106.0,90.48,33,45,1.5,LA,1643874112
250,Botngård,63.7653,9.8111,30.78,86,40,19.57,NO,1643874113
251,Castro,-24.7911,-50.0119,60.48,99,74,4.41,BR,1643874115
252,Phu Ly,20.5411,105.9139,59.29,56,98,6.46,VN,1643874117
253,Olkusz,50.2813,19.565,33.75,91,100,7.25,PL,1643874117
254,Takoradze,4.8845,-1.7554,80.4,73,7,3.69,GH,1643874120
255,Imperial,33.0334,-115.4175,55.08,14,0,13.22,US,1643874121
256,Usinsk,65.9939,57.5281,15.64,96,100,7.38,RU,1643874123
257,Pangody,65.85,74.4859,7.88,95,100,7.27,RU,1643874125
258,Basco,20.4487,121.9702,76.08,75,99,10.76,PH,1643874127
259,Amapá,1.0,-52.0,69.85,100,97,2.13,BR,1643874128
260,San Patricio,28.017,-97.5169,51.78,85,100,19.24,US,1643874130
261,Villa Carlos Paz,-31.4241,-64.4978,64.26,44,100,7.0,AR,1643873893
262,Barcelos,41.5388,-8.6151,50.92,78,100,4.03,PT,1643874133
263,Naze,28.3667,129.4833,56.32,83,100,21.18,JP,1643874134
264,San Vicente,-26.6167,-54.1333,66.06,90,73,2.73,AR,1643874136
265,Avera,33.194,-82.5271,58.87,98,100,8.34,US,1643874138
266,Mayo,38.8876,-76.5119,44.08,94,100,3.44,US,1643874140
267,Ilulissat,69.2167,-51.1,-3.78,65,100,9.64,GL,1643874008
268,Port Blair,11.6667,92.75,84.24,58,20,6.91,IN,1643874143
269,Pimenta Bueno,-11.6725,-61.1936,72.1,98,100,2.28,BR,1643874145
270,Nador,35.174,-2.9287,53.85,87,0,4.61,MA,1643874146
271,Kiryat Gat,31.61,34.7642,66.4,42,0,12.33,IL,1643874002
272,Hamilton,39.1834,-84.5333,36.0,95,100,3.0,US,1643873850
273,Punta Umbría,37.1821,-6.9661,47.23,57,100,5.44,ES,1643874150
274,Kingori,-3.2833,36.9833,68.38,83,75,10.36,TZ,1643874152
275,Rawson,-43.3002,-65.1023,68.81,49,3,12.82,AR,1643874068
276,Lavrentiya,65.5833,-171.0,0.45,63,27,22.48,RU,1643874155
277,Kampene,-3.6,26.6667,69.08,96,100,0.47,CD,1643874157
278,Ponta do Sol,32.6667,-17.1,67.12,65,100,14.74,PT,1643874158
279,Jumla,29.2747,82.1838,44.17,63,99,7.76,NP,1643874160
280,San Cristobal,7.7669,-72.225,63.45,69,44,1.72,VE,1643874162
281,Bogatyye Saby,56.0102,50.4483,28.63,97,100,2.73,RU,1643874164
282,Mackay,-21.15,149.2,83.68,83,40,6.91,AU,1643874165
283,Sampit,-2.5333,112.95,86.38,68,100,1.97,ID,1643874167
284,Kutulik,53.3508,102.7839,7.75,88,26,2.8,RU,1643874169
285,Acaraú,-2.8856,-40.12,76.28,89,90,7.58,BR,1643874170
286,Noumea,-22.2763,166.4572,82.38,71,0,3.53,NC,1643873884
287,Inhambane,-23.865,35.3833,85.98,70,20,6.91,MZ,1643874173
288,Sioux Lookout,50.1001,-91.917,-20.13,76,0,4.61,CA,1643874175
289,Belmonte,-15.8631,-38.8828,75.7,83,100,1.1,BR,1643874176
290,Bilibino,68.0546,166.4372,-5.33,62,0,4.85,RU,1643874178
291,Kaitangata,-46.2817,169.8464,57.92,73,100,2.08,NZ,1643874180
292,Chumikan,54.7183,135.315,-0.87,74,92,15.77,RU,1643874182
293,Ratnagiri,16.9833,73.3,80.33,48,92,9.86,IN,1643874184
294,Mananjary,-21.2167,48.3333,76.64,78,99,10.22,MG,1643874185
295,Half Moon Bay,37.4636,-122.4286,55.62,50,0,3.44,US,1643874187
296,Constitución,-35.3333,-72.4167,55.27,89,41,3.56,CL,1643874189
297,Salalah,17.0151,54.0924,86.09,21,0,18.41,OM,1643874190
298,Stornoway,58.2093,-6.3865,48.16,91,75,8.99,GB,1643874192
299,Quryq,43.2,51.65,51.87,43,11,27.4,KZ,1643874194
300,Kudymkar,59.0173,54.656,22.71,92,100,2.01,RU,1643874196
301,Fairbanks,64.8378,-147.7164,-14.8,69,0,6.91,US,1643874070
302,Novobirilyussy,56.9514,90.6661,16.9,91,100,5.73,RU,1643874198
303,Byron Bay,-28.65,153.6167,71.55,92,100,18.68,AU,1643874200
304,Poum,-20.2333,164.0167,82.87,71,84,6.08,NC,1643874202
305,Talnakh,69.4865,88.3972,-9.38,98,98,6.91,RU,1643874203
306,Panama City,8.9936,-79.5197,78.42,83,75,5.75,PA,1643874036
307,Roald,62.5833,6.1333,36.52,64,75,16.11,NO,1643874206
308,Inírida,3.8653,-67.9239,70.66,97,100,1.05,CO,1643874127
309,Garden City,42.3256,-83.331,23.9,87,100,12.66,US,1643874209
310,Acajutla,13.5928,-89.8275,75.79,80,6,5.95,SV,1643874211
311,Cockburn Town,21.4612,-71.1419,74.17,76,72,19.66,TC,1643874155
312,Tocopilla,-22.092,-70.1979,67.82,73,9,8.79,CL,1643874113
313,Palu,-0.8917,119.8707,83.61,77,100,4.14,ID,1643874215
314,Zhoucheng,35.9122,116.3117,45.61,26,75,4.56,CN,1643874217
315,Obihiro,42.9172,143.2044,27.81,72,57,12.48,JP,1643874218
316,Codrington,-38.2667,141.9667,60.91,60,72,16.64,AU,1643874220
317,Clearwater,27.9659,-82.8001,66.18,81,0,8.99,US,1643874197
318,Ukiah,39.1502,-123.2078,47.98,84,0,0.0,US,1643874223
319,Merauke,-8.4667,140.3333,82.98,72,100,9.73,ID,1643874225
320,Pelotas,-31.7719,-52.3425,72.21,91,49,8.46,BR,1643874160
321,Kondinskoye,59.6481,67.41,17.13,92,87,9.31,RU,1643874225
322,Aktau,43.65,51.2,54.18,44,15,25.46,KZ,1643874229
323,Okha,53.5739,142.9478,5.11,93,100,24.2,RU,1643874230
324,San Angelo,31.4638,-100.437,23.95,88,100,5.01,US,1643874232
325,Atambua,-9.1061,124.8925,77.29,83,91,7.05,ID,1643874234
326,San Policarpo,12.1791,125.5072,79.65,83,100,13.38,PH,1643874236
327,Dawlatabad,36.4141,64.9053,53.96,39,0,12.68,AF,1643874136
328,Dalby,-27.1833,151.2667,70.99,93,100,4.0,AU,1643874169
329,Plettenberg Bay,-34.0527,23.3716,74.16,74,98,6.29,ZA,1643874240
330,Rawlins,41.7911,-107.2387,-3.64,65,0,4.61,US,1643874241
331,Conceição do Araguaia,-8.2578,-49.2647,72.46,93,62,1.39,BR,1643874243
332,Chokurdakh,70.6333,147.9167,-26.54,97,84,5.73,RU,1643874245
333,Asău,46.4333,26.4,35.76,84,95,2.98,RO,1643874246
334,Kisesa,-3.0833,34.15,67.82,80,100,8.37,TZ,1643874248
335,Bima,-8.4667,118.7167,86.5,68,63,2.93,ID,1643874250
336,Mugur-Aksy,50.35,90.5,8.38,78,29,1.57,RU,1643874252
337,Bengkulu,-3.8004,102.2655,85.62,62,83,5.93,ID,1643874253
338,Rome,43.2128,-75.4557,41.13,93,100,8.05,US,1643874096
339,Chulakivka,46.3576,32.3514,32.9,79,100,8.52,UA,1643874256
340,Cap Malheureux,-19.9842,57.6142,79.47,90,100,18.01,MU,1643874258
341,Lucea,18.451,-78.1736,75.06,81,5,8.79,JM,1643874260
342,Peabiru,-23.9128,-52.3431,71.82,99,100,5.5,BR,1643874262
343,Shunyi,40.125,116.6453,37.35,17,0,4.47,CN,1643874263
344,Aksarka,66.5606,67.7975,-10.64,98,92,6.35,RU,1643874265
345,Rocha,-34.4833,-54.3333,66.09,98,100,5.88,UY,1643874267
346,Keti Bandar,24.1447,67.4497,77.38,21,0,3.8,PK,1643874268
347,Tessalit,20.1986,1.0114,61.68,13,5,16.82,ML,1643874270
348,Bokhan,53.153,103.7714,8.49,86,28,2.35,RU,1643874272
349,Sur,22.5667,59.5289,75.58,41,0,19.44,OM,1643874273
350,La Ronge,55.1001,-105.2842,-23.58,68,0,5.75,CA,1643874275
351,Ossora,59.2353,163.0719,11.41,76,100,11.88,RU,1643874277
352,Bar Harbor,44.3876,-68.2039,44.11,94,100,3.44,US,1643874279
353,Lundazi,-12.2929,33.1782,77.54,60,32,6.2,ZM,1643874280
354,Shenjiamen,29.9576,122.298,44.28,81,100,15.14,CN,1643874282
355,Franconia,38.7821,-77.1464,43.29,91,100,0.0,US,1643874284
356,Saldanha,-33.0117,17.9442,66.25,77,48,10.94,ZA,1643874246
357,Oktyabr'skiy,54.4815,53.471,30.81,96,100,15.3,RU,1643874286
358,Lashio,22.9333,97.75,73.63,26,5,3.83,MM,1643874288
359,Port Lincoln,-34.7333,135.8667,65.64,65,2,19.53,AU,1643874022
360,Aban,56.67,96.06,10.08,90,47,3.56,RU,1643874291
361,Ribe,55.3305,8.7697,44.02,98,100,11.95,DK,1643874292
362,Gongzhuling,43.5008,124.8198,13.26,42,0,9.44,CN,1643874294
363,Dābhol,17.6,73.1667,81.63,40,20,9.84,IN,1643874296
364,Port Keats,-14.25,129.55,84.51,70,44,10.71,AU,1643874298
365,Ust-Nera,64.5667,143.2,-12.24,100,100,4.27,RU,1643874299
366,Linxia Chengguanzhen,35.6003,103.2064,31.33,54,3,2.86,CN,1643874301
367,Caravelas,-17.7125,-39.2481,73.44,92,97,2.17,BR,1643874303
368,Tegul'det,57.3064,88.1667,20.25,88,100,6.4,RU,1643874304
369,Villa Zempoala,19.45,-96.4167,70.92,89,0,4.29,MX,1643874306
370,Dunedin,-45.8742,170.5036,58.8,84,100,5.01,NZ,1643874134
371,Yerbogachën,61.2767,108.0108,4.59,95,100,6.42,RU,1643874309
372,Punta Alta,-38.8759,-62.0736,70.5,64,46,7.18,AR,1643874311
373,Mama,58.3106,112.8986,0.79,94,100,4.43,RU,1643874313
374,Kashan,33.9831,51.4364,49.59,53,0,0.0,IR,1643874314
375,Kieta,-6.2167,155.6333,80.65,86,100,12.66,PG,1643874316
376,Dalvik,65.9702,-18.5286,6.73,93,100,4.88,IS,1643874318
377,Beachwood,41.4645,-81.5087,28.62,94,100,5.99,US,1643874319
378,Sundby,54.864,11.793,40.01,93,100,12.24,DK,1643874321
379,Kamina,-8.7386,24.9906,70.52,86,100,4.9,CD,1643874323
380,Cidreira,-30.1811,-50.2056,74.32,92,21,15.77,BR,1643874073
381,Oussouye,12.485,-16.5469,71.69,88,1,4.59,SN,1643874326
382,Orshanka,56.9161,47.8933,19.58,92,100,0.74,RU,1643874327
383,Creel,27.75,-107.6333,29.71,96,95,15.86,MX,1643874329
384,Huercal Overa,37.389,-1.9454,56.12,36,75,2.93,ES,1643874331
385,Cururupu,-1.8283,-44.8683,75.69,91,100,2.57,BR,1643874333
386,Pitmoaga,12.2397,-1.8767,60.42,14,6,9.66,BF,1643874334
387,Ancud,-41.8697,-73.8203,53.42,92,72,2.26,CL,1643874336
388,Awjilah,29.1081,21.2869,54.18,66,6,23.06,LY,1643874338
389,Padang,-0.9492,100.3543,86.05,77,84,3.85,ID,1643874072
390,Bathsheba,13.2167,-59.5167,77.61,73,20,13.8,BB,1643874041
391,Nesterov,54.6306,22.5714,23.41,91,27,5.77,RU,1643874342
392,Beisfjord,68.3751,17.5988,17.65,82,100,9.71,NO,1643874344
393,Isangel,-19.55,169.2667,80.11,85,100,4.61,VU,1643874345
394,Puerto Maldonado,-12.6,-69.1833,69.94,99,75,1.97,PE,1643874347
395,Kompaniyivka,48.2511,32.208,32.14,87,100,6.44,UA,1643874348
396,Kolhāpur,16.7,74.2167,88.43,19,90,13.09,IN,1643874350
397,Krasnosel'kup,65.7,82.4667,-3.44,93,24,12.68,RU,1643874352
398,Clyde River,70.4692,-68.5914,-14.57,76,100,19.57,CA,1643874280
399,Tūkrah,32.5341,20.5791,55.02,61,88,30.4,LY,1643874355
400,Coyhaique,-45.5752,-72.0662,56.01,94,20,6.91,CL,1643874356
401,Quatre Cocos,-20.2078,57.7625,79.09,91,100,23.67,MU,1643874358
402,Lampazos de Naranjo,27.0167,-100.5167,48.7,67,100,14.5,MX,1643874360
403,Pangnirtung,66.1451,-65.7125,5.99,96,100,2.73,CA,1643874362
404,Ségou,13.4317,-6.2157,67.3,15,57,10.94,ML,1643874363
405,Río Gallegos,-51.6226,-69.2181,46.45,81,75,3.44,AR,1643874365
406,Ewo,-0.8725,14.8206,75.81,79,100,4.9,CG,1643874367
407,Tsimlyansk,47.6461,42.1019,38.14,87,100,9.82,RU,1643874369
408,Along,28.1667,94.7667,68.16,42,83,3.85,IN,1643874370
409,Inta,66.0317,60.1659,13.98,92,88,5.41,RU,1643874372
410,Tufānganj,26.3167,89.6667,75.04,34,5,8.88,IN,1643874374
411,Atasū,48.6814,71.6433,19.0,76,0,2.71,KZ,1643874376
412,Nemuro,43.3236,145.575,23.43,76,91,8.48,JP,1643874377
413,Gympie,-26.1898,152.665,77.31,98,100,5.12,AU,1643874379
414,Câmara de Lobos,32.6333,-16.9667,67.12,89,75,3.44,PT,1643874381
415,Lumeje,-11.55,20.7833,65.34,97,100,7.14,AO,1643874382
416,Bereket,39.2446,55.5154,55.96,29,96,14.58,TM,1643874384
417,Waipawa,-41.4122,175.5153,68.63,66,82,7.34,NZ,1643874386
418,Ballina,-28.8667,153.5667,71.56,96,100,17.27,AU,1643874388
419,Lagoa,39.05,-27.9833,57.34,74,9,9.86,PT,1643874106
420,Soyo,-6.1349,12.3689,79.81,69,100,5.5,AO,1643874390
421,Nālūt,30.3333,10.85,46.0,52,0,9.15,LY,1643874392
422,Banda Aceh,5.5577,95.3222,85.68,64,42,15.17,ID,1643874167
423,Meghraj,23.5,73.5,82.8,12,0,16.4,IN,1643874395
424,Hualmay,-11.0964,-77.6139,69.13,84,12,7.81,PE,1643874397
425,Hong Kong,22.2855,114.1577,60.94,85,100,1.01,HK,1643874203
426,Zhurivka,50.5028,31.7849,33.78,97,100,5.12,UA,1643874399
427,Meulaboh,4.1363,96.1285,85.17,66,79,9.06,ID,1643874401
428,Santa Ana,33.7456,-117.8678,58.01,16,0,5.99,US,1643874260
429,Loviisa,60.4566,26.2251,17.46,95,93,2.73,FI,1643874404
430,Barranca,-10.75,-77.7667,69.08,82,13,5.93,PE,1643874406
431,Leningradskiy,69.3833,178.4167,-13.83,88,17,9.22,RU,1643874407
432,Richards Bay,-28.783,32.0377,90.28,52,9,9.44,ZA,1643874409
433,Alençon,48.4333,0.0833,41.79,93,100,4.52,FR,1643874411
434,Kununurra,-15.7667,128.7333,91.38,55,100,6.91,AU,1643874413
435,Sadovoye,47.7764,44.5089,36.18,100,100,8.72,RU,1643874414
436,Vanimo,-2.6741,141.3028,80.62,81,78,4.14,PG,1643874416
437,Salym,60.0625,71.4789,23.45,92,100,8.52,RU,1643874417
438,Vana-Vigala,58.7806,24.2522,19.44,95,78,2.53,EE,1643874419
439,Mount Isa,-20.7333,139.5,82.17,65,100,19.57,AU,1643874421
440,Saint-Augustin,51.226,-58.6502,30.0,96,100,18.92,CA,1643874369
441,Chulym,55.0997,80.9572,14.31,94,100,7.29,RU,1643874424
442,Luganville,-15.5333,167.1667,80.73,83,100,2.35,VU,1643874425
443,Viedma,-40.8135,-62.9967,68.83,48,23,7.36,AR,1643874427
444,Gombe,10.2897,11.1673,66.22,13,7,13.87,NG,1643874429
445,Grand-Santi,4.25,-54.3833,69.76,100,63,1.43,GF,1643874431
446,Béboto,8.2668,16.939,78.35,12,7,7.02,TD,1643874432
447,Vostok,46.4856,135.8833,-0.81,96,100,6.24,RU,1643874434
448,Necochea,-38.5473,-58.7368,64.04,82,100,9.37,AR,1643874303
449,Coremas,-7.0144,-37.9458,73.69,83,62,2.39,BR,1643874437
450,Shuangcheng,45.35,126.2833,8.28,89,46,5.57,CN,1643874439
451,Manggar,-2.8833,108.2667,83.17,70,84,5.21,ID,1643874441
452,Mucurapo,10.6667,-61.5333,73.45,86,8,6.76,TT,1643874442
453,Arlit,18.7369,7.3853,61.3,18,0,7.65,NE,1643874444
454,Tabou,4.423,-7.3528,77.25,83,20,3.67,CI,1643874446
455,Karaton,-6.3424,106.1045,86.95,65,89,4.25,ID,1643874447
456,Dabola,10.75,-11.1167,66.63,14,2,2.08,GN,1643874449
457,Kalisz,51.7611,18.091,32.72,90,99,9.06,PL,1643874451
458,Tāybād,34.74,60.7756,49.42,35,0,3.56,IR,1643874453
459,Maniitsoq,65.4167,-52.9,15.85,74,100,22.19,GL,1643874455
460,Thanh Hoa,19.8,105.7667,62.06,55,82,5.82,VN,1643874456
461,Kahului,20.8947,-156.47,73.85,81,40,5.75,US,1643874457
462,Harlingen,26.1906,-97.6961,73.06,97,100,4.61,US,1643874131
463,Naliya,23.2667,68.8333,79.52,14,0,6.04,IN,1643874460
464,Gradiste,44.7567,21.5136,34.14,88,100,7.07,RS,1643874462
465,Mineral Wells,32.8085,-98.1128,26.74,86,100,19.57,US,1643874464
466,Havre-St-Pierre,50.2334,-63.5986,30.79,100,100,9.22,CA,1643874465
467,Christchurch,-43.5333,172.6333,63.91,86,75,4.0,NZ,1643874389
468,Kaihua,23.3687,104.28,58.69,59,8,10.65,CN,1643874468
469,Alugan,12.2188,125.4808,79.12,85,100,12.66,PH,1643874470
470,High River,50.5834,-113.8687,6.67,78,76,6.24,CA,1643874313
471,Abu Dhabi,24.4667,54.3667,75.31,63,0,11.5,AE,1643874240
472,Mercedes,-34.6515,-59.4307,71.76,87,100,2.48,AR,1643874474
473,San Rafael,-34.6177,-68.3301,71.6,60,23,2.73,AR,1643874476
474,Vigrestad,58.5667,5.7,41.95,98,100,5.46,NO,1643874477
475,Hay River,60.8156,-115.7999,-27.42,75,20,5.75,CA,1643874313
476,Karratha,-20.7377,116.8463,89.44,53,84,18.81,AU,1643874480
477,Te Anau,-45.4167,167.7167,56.53,84,100,3.56,NZ,1643874482
478,Cabo Rojo,18.0866,-67.1457,73.96,88,6,5.26,PR,1643874484
479,Moose Factory,51.2585,-80.6094,-18.4,69,0,9.22,CA,1643874485
480,Tubmanburg,6.8708,-10.8172,73.31,92,57,2.46,LR,1643874487
481,Paamiut,61.994,-49.6678,24.46,74,100,23.35,GL,1643874489
482,Aromashevo,56.8602,68.6375,23.49,92,91,10.51,RU,1643874491
483,Pułtusk,52.7025,21.0828,33.12,95,22,7.7,PL,1643874252
484,Severomuysk,56.1481,113.4267,-16.6,95,10,5.28,RU,1643874493
485,Freeport,40.6576,-73.5832,42.03,86,100,0.0,US,1643874228
486,Aksaray,38.3726,34.0254,40.59,96,100,4.63,TR,1643874496
487,Imeni Babushkina,59.7573,43.1285,17.35,94,100,5.99,RU,1643874498
488,Imbituba,-28.24,-48.6703,76.89,94,22,9.95,BR,1643874500
489,Madang,-5.2246,145.7966,78.17,87,100,4.03,PG,1643874501
490,Cam Ranh,11.9214,109.1591,82.36,65,20,17.27,VN,1643874503
491,Mandurah,-32.55,115.7,103.14,35,0,10.65,AU,1643874233
492,Departamento de Maldonado,-34.6667,-54.9167,70.99,96,100,5.17,UY,1643874506
493,Baker City,44.7749,-117.8344,22.82,93,100,0.0,US,1643874208
494,Doha,25.2867,51.5333,67.98,68,0,11.5,QA,1643874443
495,Nome,64.5011,-165.4064,8.67,62,0,33.38,US,1643874510
496,Biltine,14.5333,20.9167,71.24,10,0,11.74,TD,1643874512
497,Yeppoon,-23.1333,150.7333,82.18,85,100,11.12,AU,1643874513
498,Roscrea,52.9511,-7.8017,45.54,88,96,9.62,IE,1643874515
499,Kiunga,-6.1219,141.2906,83.28,70,100,1.59,PG,1643874517
500,Mandalgovi,45.7625,106.2708,10.63,64,0,12.57,MN,1643874390
501,Vila Velha,-20.3297,-40.2925,75.15,96,100,0.0,BR,1643874519
502,Akdepe,42.0551,59.3788,44.69,46,61,15.05,TM,1643874521
503,Tromsø,69.6496,18.957,17.38,79,0,3.44,NO,1643874523
504,Mazara del Vallo,37.6641,12.588,55.0,84,0,5.99,IT,1643874525
505,Jalu,29.0331,21.5482,54.3,66,5,22.17,LY,1643874526
506,Zhuhai,22.2769,113.5678,59.97,82,40,17.27,CN,1643874528
507,Saurimo,-9.6608,20.3916,66.65,96,100,4.38,AO,1643874530
508,Raudeberg,61.9875,5.1352,35.87,82,100,5.99,NO,1643874532
509,Vao,-22.6667,167.4833,79.88,80,0,6.62,NC,1643874533
510,Adelaide,-34.9333,138.6,72.43,45,0,4.0,AU,1643874535
511,Lata,40.1629,-8.3327,43.05,73,100,2.04,PT,1643874537
512,Teya,60.3778,92.6267,16.83,89,99,8.97,RU,1643874538
513,Altusried,47.8,10.2167,41.43,97,100,3.4,DE,1643874540
514,Eureka,40.8021,-124.1637,48.2,80,74,5.46,US,1643874541
515,Hambantota,6.1241,81.1185,89.94,58,20,4.61,LK,1643874543
516,Yar-Sale,66.8333,70.8333,6.76,96,100,6.42,RU,1643874545
517,Agadez,19.75,10.25,52.38,30,0,14.9,NE,1643874547
518,Am Timan,11.0297,20.2827,78.01,10,4,9.8,TD,1643874548
519,Aksu,41.1231,80.2644,34.83,32,100,3.87,CN,1643874550
520,Moree,-29.4667,149.85,84.22,48,100,14.97,AU,1643874552
521,Guerrero Negro,27.9769,-114.0611,55.17,31,0,4.65,MX,1643874553
522,Amarante do Maranhão,-5.5667,-46.7422,68.13,96,100,2.28,BR,1643874555
523,Tura,25.5198,90.2201,73.54,35,78,1.03,IN,1643874557
524,Walvis Bay,-22.9575,14.5053,71.1,73,75,5.75,NA,1643874559
525,São Filipe,14.8961,-24.4956,73.38,74,0,10.49,CV,1643874560
526,Ngunguru,-35.6167,174.5,71.17,90,76,11.56,NZ,1643874562
527,Yinchuan,38.4681,106.2731,29.43,13,98,7.81,CN,1643874564
528,Nauta,-4.5061,-73.5757,73.22,90,100,1.97,PE,1643874566
529,Vardø,70.3705,31.1107,28.38,74,75,11.5,NO,1643874305
530,Bambanglipuro,-7.95,110.2833,69.6,65,39,9.19,ID,1643874568
531,Zárate,-34.0981,-59.0286,73.27,96,100,8.99,AR,1643874570
532,Myre,69.1036,15.9492,22.95,65,100,18.32,NO,1643874572
533,Husavik,66.0449,-17.3389,6.71,91,100,8.77,IS,1643874574
534,Srednekolymsk,67.45,153.6833,-31.76,100,98,2.04,RU,1643874575
535,Pacifica,37.6138,-122.4869,55.17,54,0,3.44,US,1643874577
536,Makat,47.6469,53.3463,35.89,84,100,17.54,KZ,1643874578
537,Virginia Beach,36.8529,-75.978,43.02,94,100,3.44,US,1643874143
538,Yuzhno-Kurilsk,44.0306,145.8556,21.76,72,36,4.97,RU,1643874581
539,Luau,-10.7073,22.2247,70.56,87,100,6.08,AO,1643874583
540,Ostrołęka,53.0862,21.5757,30.92,89,9,6.76,PL,1643874585
541,Namatanai,-3.6667,152.4333,77.76,86,100,11.03,PG,1643874586
542,Pitimbu,-7.4706,-34.8086,77.59,77,43,9.86,BR,1643874588
543,Kanniyākumāri,8.0833,77.5667,83.32,57,2,10.45,IN,1643874590
544,Muisne,0.6,-80.0333,74.91,92,100,6.64,EC,1643874592
545,Tiznit Province,29.5833,-9.5,61.54,29,9,8.61,MA,1643874593
546,Lüderitz,-26.6481,15.1594,71.11,70,0,4.34,NA,1643874595
547,Mount Gambier,-37.8333,140.7667,60.71,63,100,18.41,AU,1643874597
548,Kruisfontein,-34.0033,24.7314,71.89,68,100,10.36,ZA,1643874598
549,Morant Bay,17.8815,-76.4093,76.62,85,10,8.79,JM,1643874600
550,Collie,-33.3667,116.15,92.98,15,0,5.26,AU,1643874602
551,Broome,42.2506,-75.833,40.84,75,100,1.01,US,1643874604
552,Borova,50.1763,30.1043,34.25,95,100,11.77,UA,1643874605
553,Nantong,32.0303,120.8747,45.0,66,100,4.0,CN,1643874607
554,Berlevåg,70.8578,29.0864,22.95,80,75,11.5,NO,1643874609
555,Ghoti,19.7168,73.6245,79.25,26,18,12.86,IN,1643874611
556,Nizhniye Sergi,56.6614,59.3033,28.56,89,100,9.62,RU,1643874612
557,Pevek,69.7008,170.3133,-7.96,76,0,4.32,RU,1643874614
558,Marigot,18.0667,-63.0833,77.04,78,20,6.91,MF,1643874616
559,Santa Rosa,14.3122,121.1114,85.98,70,100,14.03,PH,1643874618
560,Hirado,33.3597,129.5531,47.35,52,100,14.74,JP,1643874619
561,Mago,53.2514,140.1822,1.72,96,100,7.31,RU,1643874621
562,Yulara,-25.2406,130.9889,80.44,29,100,16.11,AU,1643874623
563,Hirara,24.8,125.2833,69.66,94,75,14.97,JP,1643874625
564,Bay City,43.5945,-83.8889,18.95,75,75,7.0,US,1643874626
565,Ushtobe,45.2514,77.9838,29.82,70,100,3.74,KZ,1643874628
566,Black Diamond,47.3087,-122.0032,43.43,89,100,1.01,US,1643874583
567,Uglovoye,44.8215,33.6045,37.56,96,100,12.39,UA,1643874631
568,Alofi,-19.0595,-169.9187,76.89,83,55,4.61,NU,1643874633
569,Mergen,49.1833,125.2167,0.9,89,21,3.42,CN,1643874634
570,Pontianak,-0.0333,109.3333,89.58,58,40,6.91,ID,1643874636
571,Mlonggo,-6.5333,110.7,85.89,72,98,9.42,ID,1643874638
572,Upornaya,44.3914,41.0196,42.4,88,100,6.46,RU,1643874640
573,Carhuamayo,-10.9167,-76.0333,37.53,93,100,3.27,PE,1643874641
574,Nosy Varika,-20.5833,48.5333,75.74,79,100,12.41,MG,1643874643
575,São Gabriel,-30.3364,-54.32,69.78,79,1,8.37,BR,1643874645
576,Homberg (Efze),51.0333,9.4,41.22,93,75,10.36,DE,1643874647
577,Pimentel,-6.8367,-79.9342,69.19,84,100,10.07,PE,1643874648
578,Bratsk,56.1325,101.6142,1.89,92,100,3.22,RU,1643874650
579,Ejea de los Caballeros,42.1263,-1.1372,32.99,55,64,1.7,ES,1643874652
580,Sahuaripa,29.05,-109.2333,52.65,76,99,5.39,MX,1643874654
581,Jamālpur,24.9167,89.9333,78.64,33,0,3.98,BD,1643874655
582,Olafsvik,64.8945,-23.7142,29.17,70,86,15.77,IS,1643874657
583,Muros,42.7762,-9.0603,54.09,78,67,7.27,ES,1643874659
584,Lodwar,3.1191,35.5973,91.36,28,100,24.61,KE,1643874660
585,Puerto Baquerizo Moreno,-0.9,-89.6,73.35,84,38,8.12,EC,1643874662
586,Gogrial,8.5332,28.1004,89.49,13,71,7.61,SS,1643874664
587,Vila,42.0304,-8.1588,40.33,75,100,3.69,PT,1643874666
588,Camapuã,-19.5314,-54.0439,70.47,97,100,3.06,BR,1643874667
589,Felanitx,39.4696,3.1483,36.12,72,10,5.53,ES,1643874669
590,Vitry-le-François,48.7333,4.5833,44.73,92,100,6.82,FR,1643874671
591,Quelimane,-17.8786,36.8883,84.15,79,40,1.99,MZ,1643874673
592,Wajima,37.4,136.9,34.48,93,40,8.05,JP,1643874674
593,Uíge,-7.6087,15.0613,67.26,92,100,1.43,AO,1643874676
594,Russell,32.3502,-85.1999,61.12,86,100,6.91,US,1643874678
595,Mabamba,-3.5983,30.5019,72.01,79,100,1.74,TZ,1643874680
596,Egvekinot,66.3167,-179.1667,-10.79,78,3,18.03,RU,1643874681
597,Gryazovets,58.88,40.2525,18.9,94,100,5.44,RU,1643874683
598,Liwonde,-15.0506,35.2035,83.1,66,22,3.8,MW,1643874685
599,Constantine,36.365,6.6147,38.61,75,0,3.44,DZ,1643874687
600,Petra,30.3222,35.4793,51.71,55,0,17.65,JO,1643874688
601,Fort Nelson,58.8053,-122.7002,-9.81,70,100,9.22,CA,1643874690
602,Araouane,18.9048,-3.5265,58.82,22,34,11.86,ML,1643874692
603,Verkhnyaya Inta,65.9811,60.3094,13.69,89,88,5.23,RU,1643874694
