,City,Lat,Lng,Max Temp,Humidity,Cloudiness,Wind Speed,Country,Date
0,Mataura,-46.1927,168.8643,53.47,80,100,0.76,NZ,1643904013
1,Geraldton,-28.7667,114.6,72.01,60,0,4.61,AU,1643904015
2,Berlevåg,70.8578,29.0864,22.8,79,75,5.75,NO,1643904017
3,‘Āhuimanu,21.4447,-157.8378,71.85,81,15,1.01,US,1643904019
4,Smidovich,48.6,133.8167,-23.71,100,46,2.86,RU,1643904020
5,Ust-Kuyga,70.0167,135.6,-35.07,99,84,1.61,RU,1643904022
6,Kavieng,-2.5744,150.7967,81.19,78,100,7.78,PG,1643904025
7,Barrow,71.2906,-156.7887,-28.86,100,12,1.9,US,1643903790
8,Mahébourg,-20.4081,57.7,80.26,90,100,26.71,MU,1643904027
9,Yangambi,0.8102,24.4336,82.36,53,100,3.33,CD,1643904028
10,New Norfolk,-42.7826,147.0587,51.71,66,5,2.26,AU,1643904031
11,Khatanga,71.9667,102.5,-33.14,100,24,2.21,RU,1643904034
12,Saskylakh,71.9167,114.0833,-31.4,100,81,1.5,RU,1643904035
13,Kiama,-34.6833,150.8667,63.0,75,99,3.0,AU,1643903805
14,Hermanus,-34.4187,19.2345,73.9,66,50,14.61,ZA,1643904037
15,Rikitea,-23.1203,-134.9692,77.56,77,100,13.67,PF,1643904038
16,Vao,-22.6667,167.4833,79.39,85,87,16.62,NC,1643904039
17,George Town,5.4112,100.3354,82.89,90,20,1.01,MY,1643903864
18,Mehrān,33.1222,46.1646,61.97,31,100,13.02,IR,1643904041
19,Vaini,-21.2,-175.2,80.83,76,10,13.09,TO,1643904042
20,Busselton,-33.65,115.3333,74.05,42,92,8.57,AU,1643904043
21,Kapaa,22.0752,-159.319,68.32,88,75,8.05,US,1643904044
22,Celestún,20.8667,-90.4,81.84,61,7,13.51,MX,1643904044
23,Hilo,19.7297,-155.09,69.39,72,20,1.14,US,1643903893
24,Ribeira Grande,38.5167,-28.7,63.0,67,20,4.61,PT,1643903986
25,Ponta Delgada,37.7333,-25.6667,66.51,72,20,16.11,PT,1643904046
26,Belyy Yar,53.6039,91.3903,-12.14,90,51,2.24,RU,1643904047
27,Nur-Sultan,51.1801,71.446,-4.05,84,13,4.47,KZ,1643903784
28,Lagoa,39.05,-27.9833,57.58,73,99,10.98,PT,1643904049
29,Castro,-24.7911,-50.0119,73.99,74,96,1.5,BR,1643904004
30,Tuktoyaktuk,69.4541,-133.0374,-16.06,99,99,9.33,CA,1643904050
31,East London,-33.0153,27.9116,73.81,85,85,15.99,ZA,1643904051
32,Kropotkin,45.4375,40.5756,39.45,83,100,5.46,RU,1643904052
33,Dikson,73.5069,80.5464,-14.06,98,92,7.83,RU,1643904053
34,Ushuaia,-54.8,-68.3,49.87,47,46,5.28,AR,1643904054
35,Chokurdakh,70.6333,147.9167,-29.06,100,93,3.58,RU,1643904055
36,Stonewall,50.1344,-97.3268,-18.02,92,6,8.37,CA,1643904018
37,Kavaratti,10.5669,72.642,79.86,69,5,8.48,IN,1643904056
38,São José da Coroa Grande,-8.8978,-35.1478,86.11,53,87,9.57,BR,1643904057
39,Phichit,16.25,100.4167,81.9,54,33,5.08,TH,1643904058
40,Avarua,-21.2078,-159.775,78.85,89,75,9.22,CK,1643904059
41,Lorengau,-2.0226,147.2712,79.21,79,100,5.57,PG,1643904060
42,Meulaboh,4.1363,96.1285,75.09,90,97,8.59,ID,1643904061
43,Punta Arenas,-53.15,-70.9167,48.11,57,99,6.96,CL,1643904061
44,Tual,-5.6667,132.75,83.12,73,77,12.15,ID,1643904062
45,Bassano,50.7834,-112.4685,6.94,92,100,7.31,CA,1643904063
46,Sinnamary,5.3833,-52.95,80.11,80,44,9.19,GF,1643904064
47,Porto-Novo,6.4965,2.6036,86.47,53,77,11.05,BJ,1643904065
48,Bengkulu,-3.8004,102.2655,76.51,91,100,6.49,ID,1643904066
49,Port Alfred,-33.5906,26.891,72.64,79,100,17.45,ZA,1643904067
50,Ust-Nera,64.5667,143.2,-15.45,100,99,4.05,RU,1643904068
51,Yellowknife,62.456,-114.3525,-31.45,78,25,10.0,CA,1643904069
52,Nanortalik,60.1432,-45.2371,30.29,78,100,15.35,GL,1643904069
53,Yertsevo,60.7966,40.086,0.01,100,94,2.86,RU,1643904070
54,Gombong,-7.6072,109.5142,78.1,87,99,1.48,ID,1643904071
55,Albany,42.6001,-73.9662,42.75,92,100,0.76,US,1643904033
56,Port Blair,11.6667,92.75,78.84,73,40,5.75,IN,1643903853
57,Devrek,41.2192,31.9558,40.01,99,100,3.42,TR,1643904073
58,Esperance,-33.8667,121.9,63.97,74,3,20.09,AU,1643904074
59,Lebu,-37.6167,-73.65,64.27,78,91,12.73,CL,1643904075
60,Almenara,-16.1836,-40.6944,89.51,50,32,4.92,BR,1643904076
61,Qaanaaq,77.484,-69.3632,-13.74,64,90,7.94,GL,1643904077
62,Chui,-33.6971,-53.4616,88.14,50,39,4.27,UY,1643904077
63,Omboué,-1.5746,9.2618,79.41,78,96,5.75,GA,1643904078
64,Tiznit Province,29.5833,-9.5,70.86,26,66,10.45,MA,1643904079
65,Loznica,44.5342,19.2242,44.06,74,58,5.01,RS,1643904080
66,Pevek,69.7008,170.3133,-10.5,77,14,1.45,RU,1643903886
67,Carnarvon,-24.8667,113.6333,80.02,72,0,13.22,AU,1643904081
68,Omsukchan,62.5333,155.8,-5.82,77,88,10.18,RU,1643904082
69,Butaritari,3.0707,172.7902,80.62,80,66,12.46,KI,1643904083
70,Isangel,-19.55,169.2667,78.89,88,100,5.41,VU,1643904084
71,Harper,4.375,-7.7169,84.81,62,9,11.14,LR,1643904085
72,Iwanai,42.9744,140.5089,23.11,85,100,13.67,JP,1643904085
73,Skjold,55.7971,9.9397,44.89,93,100,13.31,DK,1643904086
74,Ojinaga,29.5667,-104.4167,32.95,74,100,10.36,MX,1643904087
75,Galesong,-5.3166,119.3661,75.22,80,97,4.72,ID,1643904088
76,Camopi,3.1655,-52.3158,78.6,92,85,4.59,GF,1643904089
77,Cherskiy,68.75,161.3,-26.01,97,6,3.02,RU,1643904090
78,Te Anau,-45.4167,167.7167,48.51,97,100,3.53,NZ,1643904090
79,Lukovetskiy,64.2956,41.9211,12.18,100,92,1.5,RU,1643904091
80,Encantado,-29.2361,-51.8697,100.06,54,55,3.33,BR,1643904092
81,Puerto Escondido,15.85,-97.0667,80.42,59,1,5.17,MX,1643904093
82,Laguna,38.421,-121.4238,47.34,80,0,0.0,US,1643904094
83,Mapiripán,2.8892,-72.1256,93.61,35,100,9.78,CO,1643904094
84,Jamestown,42.097,-79.2353,32.09,55,100,10.36,US,1643904095
85,Ascension,30.2169,-90.9001,75.0,96,100,12.66,US,1643904096
86,Atuona,-9.8,-139.0333,78.1,77,11,16.58,PF,1643904097
87,Faanui,-16.4833,-151.75,79.66,78,51,16.69,PF,1643904098
88,Ponta do Sol,32.6667,-17.1,70.0,75,93,10.18,PT,1643903961
89,Puerto Ayora,-0.7393,-90.3518,78.55,87,8,5.99,EC,1643904099
90,Fairbanks,64.8378,-147.7164,-25.98,61,6,4.85,US,1643904100
91,Gigmoto,13.7796,124.39,77.32,90,98,8.97,PH,1643904101
92,Slave Lake,55.2834,-114.769,-10.19,98,97,3.0,CA,1643904102
93,Ostrovnoy,68.0531,39.5131,19.69,77,100,10.25,RU,1643904102
94,Hong Kong,22.2855,114.1577,58.24,84,100,1.99,HK,1643903986
95,Abu Dhabi,24.4667,54.3667,69.96,68,0,16.75,AE,1643904002
96,Flinders,-34.5833,150.8552,64.2,76,97,13.96,AU,1643904104
97,Sobolevo,54.4299,31.8996,23.05,94,100,9.08,RU,1643904105
98,Hasaki,35.7333,140.8333,36.28,50,100,17.18,JP,1643903973
99,Bondo,3.8146,23.6866,91.06,23,97,1.45,CD,1643904107
100,Turbat,26.0023,63.044,68.25,13,0,11.54,PK,1643904107
101,Mar del Plata,-38.0023,-57.5575,76.08,86,100,3.0,AR,1643903953
102,Cape Town,-33.9258,18.4232,74.26,56,55,5.99,ZA,1643904011
103,Birjand,32.8663,59.2211,44.69,30,0,2.13,IR,1643904109
104,Paraná,-31.732,-60.5238,81.57,66,100,11.05,AR,1643904110
105,Upernavik,72.7868,-56.1549,-3.87,66,100,4.72,GL,1643904111
106,Saldanha,-33.0117,17.9442,65.82,71,69,12.84,ZA,1643904112
107,Puerto Plata,19.7934,-70.6884,79.45,94,100,11.5,DO,1643903868
108,São João da Barra,-21.6403,-41.0511,78.44,82,99,8.37,BR,1643904113
109,Tessalit,20.1986,1.0114,79.74,6,23,13.96,ML,1643904114
110,Evensk,61.95,159.2333,17.26,42,57,25.57,RU,1643904115
111,Chapais,49.7834,-74.8492,-8.81,80,96,7.36,CA,1643904116
112,Tuatapere,-46.1333,167.6833,53.82,79,100,1.41,NZ,1643904117
113,Akdepe,42.0551,59.3788,35.6,62,54,15.3,TM,1643904117
114,Yerbogachën,61.2767,108.0108,-0.6,99,96,2.95,RU,1643904118
115,Yulara,-25.2406,130.9889,67.98,38,62,13.82,AU,1643904079
116,Bambous Virieux,-20.3428,57.7575,80.22,90,100,25.72,MU,1643904043
117,Nhulunbuy,-12.2333,136.7667,81.21,83,40,10.36,AU,1643904120
118,Arraial do Cabo,-22.9661,-42.0278,77.81,81,97,8.25,BR,1643904121
119,Concarneau,47.875,-3.9225,50.79,81,78,8.19,FR,1643904122
120,Ghotki,28.006,69.3161,64.49,16,0,9.26,PK,1643904123
121,Bluff,-46.6,168.3333,53.8,63,100,3.58,NZ,1643903959
122,Saint-Philippe,-21.3585,55.7679,78.35,93,100,37.0,RE,1643904125
123,Jennings,38.7192,-90.2604,18.66,91,100,1.99,US,1643904125
124,Kjøllefjord,70.9457,27.3465,20.98,76,100,10.22,NO,1643904126
125,Dunedin,-45.8742,170.5036,54.81,88,100,1.01,NZ,1643904078
126,Kahului,20.8947,-156.47,70.84,83,11,3.0,US,1643904128
127,Mossamedes,-15.1961,12.1522,77.86,59,0,15.26,AO,1643904129
128,Tezu,27.9167,96.1667,55.92,66,87,4.88,IN,1643904129
129,Shakhtinsk,49.71,72.5872,-1.64,91,6,3.06,KZ,1643904130
130,Broken Hill,-31.95,141.4333,64.65,37,0,19.35,AU,1643904131
131,Belém,-1.4558,-48.5044,82.83,79,74,4.92,BR,1643904030
132,Kaitangata,-46.2817,169.8464,55.92,83,100,2.91,NZ,1643904133
133,Vestmannaeyjar,63.4427,-20.2734,27.5,72,12,17.67,IS,1643904133
134,Yelabuga,55.7613,52.0649,29.75,99,100,0.56,RU,1643904134
135,Makar'yev,57.8797,43.8069,4.93,100,95,2.3,RU,1643904135
136,Zambezi,-13.5432,23.1047,69.6,91,100,5.23,ZM,1643904136
137,Thomaston,32.8882,-84.3266,65.98,81,100,3.0,US,1643903939
138,Tiksi,71.6872,128.8694,-11.61,99,100,3.98,RU,1643904137
139,Bethel,41.3712,-73.414,43.84,98,100,1.99,US,1643904138
140,Iskateley,67.6803,53.1512,4.98,97,100,4.74,RU,1643904139
141,Torbay,47.6666,-52.7314,37.58,75,75,5.01,CA,1643904140
142,Gostyń,51.8825,17.0123,43.05,83,100,7.67,PL,1643904141
143,Ciudad General Terán,25.2667,-99.6833,49.66,66,100,13.06,MX,1643904142
144,Hithadhoo,-0.6,73.0833,82.04,70,100,5.41,MV,1643904142
145,Bredasdorp,-34.5322,20.0403,66.27,49,77,17.78,ZA,1643904143
146,Inverness,57.4791,-4.224,53.58,81,75,29.93,GB,1643903984
147,Berdigestyakh,62.0989,126.6992,-19.8,99,100,4.9,RU,1643904145
148,Salalah,17.0151,54.0924,75.07,54,0,2.19,OM,1643904146
149,Mananum,8.8333,124.95,59.54,83,100,4.72,PH,1643904146
150,Nikolskoye,59.7035,30.7861,13.89,100,83,1.36,RU,1643904147
151,Atbasar,51.8,68.3333,-0.51,95,30,5.01,KZ,1643904148
152,Waddān,29.1614,16.139,61.12,39,5,18.16,LY,1643903955
153,Norman Wells,65.282,-126.8329,-40.38,100,56,1.52,CA,1643904149
154,Lillooet,50.6856,-121.942,21.96,94,88,4.23,CA,1643904019
155,Provideniya,64.3833,-173.3,3.81,60,47,22.3,RU,1643904151
156,Orán,-23.1322,-64.326,92.37,33,32,2.86,AR,1643904152
157,Lahat,-3.8,103.5333,73.65,98,100,1.83,ID,1643904037
158,Leningradskiy,69.3833,178.4167,-12.73,84,3,9.15,RU,1643904153
159,Lavrentiya,65.5833,-171.0,-0.49,58,4,24.54,RU,1643904154
160,Hofn,64.2539,-15.2082,29.34,60,100,16.96,IS,1643904155
161,Astoria,46.1879,-123.8313,46.29,95,100,1.99,US,1643904080
162,Hobart,-42.8794,147.3294,52.05,81,40,5.75,AU,1643904034
163,Oud-Beijerland,51.8242,4.4125,47.01,78,75,4.0,NL,1643904157
164,Casino,-28.8667,153.05,65.57,91,72,4.41,AU,1643904158
165,Vikhorevka,56.1201,101.1636,-5.76,100,95,2.3,RU,1643904159
166,Onguday,50.75,86.15,-6.34,98,43,2.55,RU,1643904159
167,Haines Junction,60.7522,-137.5108,-4.38,99,100,1.95,CA,1643904160
168,Saint George,37.1041,-113.5841,31.53,38,0,1.01,US,1643904161
169,Constitución,-35.3333,-72.4167,67.53,64,9,6.64,CL,1643904116
170,Saint Paul Harbor,57.79,-152.4072,38.71,93,100,14.97,US,1643904163
171,Potoru,7.5072,-11.4786,99.91,17,2,1.63,SL,1643904163
172,Marabu,4.4148,114.0089,77.04,89,95,5.77,MY,1643904164
173,Sevierville,35.8681,-83.5618,58.15,93,100,0.0,US,1643904165
174,Katsuura,35.1333,140.3,44.19,57,100,16.69,JP,1643904166
175,Port Elizabeth,-33.918,25.5701,71.1,73,59,19.01,ZA,1643904167
176,Ejura,7.3856,-1.3562,97.05,8,17,3.15,GH,1643904167
177,Klaksvík,62.2266,-6.589,36.52,96,98,26.6,FO,1643904168
178,Mildura,-34.2,142.15,59.07,60,0,17.6,AU,1643904169
179,Río Gallegos,-51.6226,-69.2181,54.3,60,100,6.8,AR,1643904112
180,Lompoc,34.6391,-120.4579,54.79,72,0,8.05,US,1643904171
181,Poum,-20.2333,164.0167,81.1,82,79,9.28,NC,1643904171
182,La Ronge,55.1001,-105.2842,-28.55,98,22,4.05,CA,1643904172
183,Carutapera,-1.195,-46.02,81.1,85,99,7.81,BR,1643904173
184,Longyearbyen,78.2186,15.6401,13.84,67,0,8.05,SJ,1643904174
185,Taoudenni,22.6783,-3.9836,77.88,12,0,11.07,ML,1643904050
186,Kloulklubed,7.0419,134.2556,82.76,78,99,15.55,PW,1643904047
187,De-Kastri,51.4667,140.7833,5.86,88,100,15.03,RU,1643904176
188,Itacoatiara,-3.1431,-58.4442,85.5,66,75,4.29,BR,1643904152
189,Saint-Pierre,-21.3393,55.4781,78.44,100,100,47.18,RE,1643904177
190,Mandalgovi,45.7625,106.2708,3.13,75,0,9.66,MN,1643904178
191,Porto Belo,-27.1578,-48.5531,90.79,71,7,12.75,BR,1643904179
192,Tricase,39.9304,18.3553,48.81,54,1,22.77,IT,1643904180
193,Poya,-21.35,165.15,78.08,87,98,1.34,NC,1643904181
194,São Filipe,14.8961,-24.4956,75.96,66,0,8.52,CV,1643904181
195,Gusinoye Ozero,51.1144,106.2614,-7.2,96,11,3.29,RU,1643904183
196,Khandyga,62.6667,135.6,-27.99,100,100,1.21,RU,1643904183
197,Tucumã,-0.1833,-50.05,82.74,76,81,7.83,BR,1643904184
198,Cabo San Lucas,22.8909,-109.9124,66.61,66,63,7.0,MX,1643904099
199,Masingbi,8.7833,-11.95,98.35,12,1,3.58,SL,1643904186
200,Seoul,37.5683,126.9778,26.04,48,100,6.35,KR,1643904186
201,Diego de Almagro,-26.3667,-70.05,80.8,15,0,10.56,CL,1643904187
202,Olafsvik,64.8945,-23.7142,25.68,64,92,10.4,IS,1643903976
203,Lusambo,-4.9667,23.45,68.7,98,100,4.61,CD,1643903953
204,Burnie,-41.0667,145.9167,54.91,79,2,9.22,AU,1643904189
205,Lüderitz,-26.6481,15.1594,71.94,66,1,18.12,NA,1643904190
206,Kieta,-6.2167,155.6333,77.92,93,100,14.99,PG,1643904115
207,Udachny,66.4167,112.4,-30.33,100,80,1.36,RU,1643904192
208,Belaya Gora,68.5333,146.4167,-32.37,100,63,1.01,RU,1643904193
209,Mount Gambier,-37.8333,140.7667,53.33,75,16,7.31,AU,1643904057
210,Merauke,-8.4667,140.3333,79.79,82,93,12.97,ID,1643904194
211,Bardstown,37.8092,-85.4669,35.29,97,100,12.66,US,1643904195
212,Severo-Kuril'sk,50.6789,156.125,29.71,82,100,10.2,RU,1643904196
213,Sitka,57.0531,-135.33,37.29,93,100,3.44,US,1643904196
214,Airai,-8.9266,125.4092,60.31,93,99,2.64,TL,1643904197
215,Rehoboth,-23.3167,17.0833,79.5,39,65,14.92,NA,1643904198
216,Atar,20.5169,-13.0499,87.62,6,1,13.06,MR,1643904199
217,Amapá,1.0,-52.0,78.64,92,91,4.12,BR,1643904200
218,Verkhnevilyuysk,63.4453,120.3167,-27.27,100,78,3.51,RU,1643904201
219,Honningsvåg,70.9821,25.9704,27.46,67,100,14.18,NO,1643904101
220,Pacific Grove,36.6177,-121.9166,52.16,53,0,1.99,US,1643904202
221,Port Lincoln,-34.7333,135.8667,61.74,72,15,15.66,AU,1643904203
222,Sunrise Manor,36.2111,-115.0731,39.92,27,0,1.99,US,1643904204
223,Jashpurnagar,22.9,84.15,60.76,41,0,4.36,IN,1643904205
224,Boende,-0.2167,20.8667,80.44,47,100,4.05,CD,1643904206
225,Naliya,23.2667,68.8333,67.71,47,0,9.98,IN,1643904207
226,Bowen,-20.0167,148.2333,76.62,95,100,4.07,AU,1643904207
227,Caravelas,-17.7125,-39.2481,86.4,56,39,10.02,BR,1643904208
228,Bahía de Caráquez,-0.6,-80.4167,84.38,80,99,2.15,EC,1643904210
229,Codrington,-38.2667,141.9667,58.86,65,35,12.17,AU,1643904211
230,Havøysund,70.9963,24.6622,23.23,74,100,13.67,NO,1643904212
231,Khovd,48.0056,91.6419,-7.13,92,88,3.06,MN,1643904213
232,Okha,53.5739,142.9478,4.14,92,100,23.04,RU,1643904213
233,Kalabo,-14.97,22.6814,71.1,88,100,0.96,ZM,1643904214
234,Angra dos Reis,-23.0067,-44.3181,79.93,74,83,4.18,BR,1643904141
235,Broome,42.2506,-75.833,39.0,77,100,4.0,US,1643903986
236,Thompson,55.7435,-97.8558,-18.81,88,100,7.49,CA,1643904216
237,Iqaluit,63.7506,-68.5145,-7.31,63,100,8.99,CA,1643904016
238,Obo,5.3998,26.4869,92.39,17,46,5.64,CF,1643904218
239,Biltine,14.5333,20.9167,79.81,7,4,10.31,TD,1643904218
240,Hambantota,6.1241,81.1185,79.14,94,20,2.3,LK,1643904219
241,Pisco,-13.7,-76.2167,71.65,78,0,8.05,PE,1643904220
242,Arrondissement de Limoges,45.75,1.3333,39.76,100,100,8.05,FR,1643904221
243,Cidreira,-30.1811,-50.2056,82.22,69,21,14.18,BR,1643904222
244,Iisalmi,63.5592,27.1907,-0.38,100,73,1.07,FI,1643904223
245,Walvis Bay,-22.9575,14.5053,75.09,62,2,16.98,NA,1643904119
246,Verkhnetulomskiy,68.6073,31.7962,1.53,98,100,1.5,RU,1643904224
247,Bazarnye Mataki,54.8833,49.9333,28.63,99,100,2.08,RU,1643904225
248,Maragogi,-9.0122,-35.2225,86.25,53,90,9.98,BR,1643904226
249,Husavik,66.0449,-17.3389,27.68,87,100,20.07,IS,1643904226
250,Tambopata,-12.7333,-69.1833,85.89,66,40,8.05,PE,1643904227
251,Ketchikan,55.3422,-131.6461,42.78,100,100,5.75,US,1643904228
252,Anadyr,64.75,177.4833,14.5,52,61,35.79,RU,1643903975
253,Gizo Government Station,-8.103,156.8419,80.51,83,100,12.44,SB,1643904230
254,Guerrero Negro,27.9769,-114.0611,54.41,32,0,5.19,MX,1643904230
255,Rawson,-43.3002,-65.1023,78.39,39,41,7.31,AR,1643904067
256,Halifax,44.6453,-63.5724,46.99,97,100,8.99,CA,1643904094
257,San Lorenzo,-25.3333,-57.5333,92.59,49,75,3.0,PY,1643904015
258,Kannad,20.2667,75.1333,67.19,44,4,10.8,IN,1643904233
259,Faya,18.3851,42.4509,59.52,69,22,6.35,SA,1643904234
260,Half Moon Bay,37.4636,-122.4286,53.46,67,0,0.0,US,1643904235
261,Sayansk,54.1088,102.1648,-2.61,99,100,1.01,RU,1643904236
262,Nova Olímpia,-14.7972,-57.2881,83.43,78,50,7.05,BR,1643904236
263,North Myrtle Beach,33.816,-78.68,73.02,80,100,5.01,US,1643904050
264,Rio Grande,-32.035,-52.0986,91.51,62,14,8.05,BR,1643904238
265,Chumikan,54.7183,135.315,-3.62,74,100,15.23,RU,1643904239
266,Fortuna,40.5982,-124.1573,46.92,85,100,4.0,US,1643903973
267,Manokwari,-0.8667,134.0833,77.25,85,78,3.85,ID,1643904240
268,Hervey Bay,-25.2986,152.8535,72.03,96,100,13.0,AU,1643904241
269,Souillac,-20.5167,57.5167,80.37,91,100,24.32,MU,1643904242
270,Borger,52.9233,6.7931,45.81,94,100,12.68,NL,1643904242
271,Upland,34.0975,-117.6484,53.51,35,0,1.01,US,1643903956
272,Trat,12.5,102.5,84.97,88,61,2.77,TH,1643904244
273,Vostok,46.4856,135.8833,-11.16,99,100,4.38,RU,1643904245
274,Yar-Sale,66.8333,70.8333,-12.8,100,48,6.6,RU,1643904089
275,Burias,11.4463,122.5497,74.7,95,90,3.53,PH,1643904246
276,Verāval,20.9,70.3667,70.12,58,28,13.87,IN,1643904247
277,Kawhia,-38.0651,174.8183,62.38,94,23,7.4,NZ,1643904248
278,Swan Hill,-35.3378,143.5544,57.11,59,0,14.58,AU,1643904249
279,Litovko,49.2361,135.1742,-21.19,100,75,2.24,RU,1643904249
280,Ajdabiya,30.7554,20.2263,55.53,57,82,27.31,LY,1643904250
281,Prudy,57.5738,46.2718,4.14,100,94,0.94,RU,1643904251
282,Gambēla,8.25,34.5833,92.26,24,96,5.12,ET,1643904252
283,Shache,38.4167,77.2406,31.06,38,100,5.84,CN,1643904253
284,Taksimo,56.3444,114.8794,-16.56,90,79,2.77,RU,1643904253
285,Santa Cruz de la Sierra,-17.8,-63.1667,86.49,58,19,13.73,BO,1643904114
286,Ixtapa,20.7,-105.2,70.23,77,19,1.99,MX,1643904033
287,Tuscaloosa,33.2098,-87.5692,65.21,98,100,1.01,US,1643904256
288,Karratha,-20.7377,116.8463,83.07,71,100,3.85,AU,1643903968
289,Owando,-0.4819,15.8999,85.37,50,99,6.31,CG,1643904257
290,Acapulco de Juárez,16.8634,-99.8901,78.62,69,0,4.61,MX,1643904189
291,Bonavista,48.6499,-53.1147,37.11,80,100,26.4,CA,1643904258
292,Apomu,7.3333,4.1833,95.7,18,27,0.63,NG,1643904259
293,Biak,-0.9131,122.8766,76.95,77,100,3.71,ID,1643904260
294,Hobyo,5.3505,48.5268,77.83,68,11,19.93,SO,1643904127
295,Yermish',54.7678,42.2711,14.79,96,100,5.06,RU,1643904262
296,Miraflores,19.2167,-98.8083,62.02,34,0,3.71,MX,1643904262
297,Adeje,28.1227,-16.726,74.5,50,20,4.0,ES,1643904263
298,Grindavik,63.8424,-22.4338,27.07,80,75,16.11,IS,1643904264
299,Bolobo,-2.1667,16.2333,78.1,74,100,3.94,CD,1643904265
300,Petropavlovsk-Kamchatskiy,53.0452,158.6483,18.05,76,98,10.31,RU,1643904266
301,Soloneshnoye,51.6544,84.3197,3.51,94,57,5.28,RU,1643904266
302,Taseyevo,57.2169,94.8978,-1.28,100,91,2.55,RU,1643904267
303,Necochea,-38.5473,-58.7368,78.04,45,100,10.04,AR,1643904119
304,Ternate,0.8,127.4,79.16,82,100,3.44,ID,1643904269
305,Tura,25.5198,90.2201,58.6,58,13,5.12,IN,1643904270
306,Valdemārpils,57.3707,22.5919,18.82,91,98,3.89,LV,1643904270
307,Saint-Augustin,51.226,-58.6502,33.12,98,100,23.04,CA,1643904271
308,Aswān,24.0934,32.907,66.74,21,0,11.83,EG,1643904272
309,Koszalin,54.1944,16.1722,42.67,94,100,11.59,PL,1643904058
310,Phalaborwa,-23.943,31.1411,95.25,30,0,7.58,ZA,1643904274
311,Cockburn Town,21.4612,-71.1419,78.76,65,40,17.27,TC,1643904274
312,Rodolfo Sánchez Taboada,31.7167,-116.5667,48.18,35,0,5.01,MX,1643904275
313,Flushing,51.4425,3.5736,46.35,98,75,17.27,NL,1643904276
314,Sabzawār,36.2126,57.6819,45.16,44,36,0.83,IR,1643904277
315,Pangnirtung,66.1451,-65.7125,2.16,99,100,4.47,CA,1643904278
316,Dongying,37.4564,118.4856,28.6,48,36,3.98,CN,1643904279
317,Batagay-Alyta,67.8006,130.4114,-19.84,94,98,4.61,RU,1643904279
318,Andenes,69.3143,16.1194,22.98,58,20,21.85,NO,1643904280
319,Thinadhoo,0.5333,72.9333,82.38,71,100,4.05,MV,1643904281
320,Asău,46.4333,26.4,32.95,74,100,1.07,RO,1643904282
321,Yangi Marg`ilon,40.4272,71.7189,36.82,80,3,6.91,UZ,1643904283
322,Xiaoweizhai,26.1903,107.5125,39.33,85,93,4.03,CN,1643904283
323,Santa Isabel,-23.3156,-46.2214,82.11,78,100,1.61,BR,1643904250
324,Wenling,28.3669,121.36,41.92,93,100,11.95,CN,1643904285
325,Narsaq,60.9167,-46.05,23.22,96,100,2.73,GL,1643904090
326,Las Vegas,36.175,-115.1372,41.81,30,0,3.0,US,1643903761
327,Tasiilaq,65.6145,-37.6368,10.56,59,71,6.42,GL,1643904287
328,Saint-Joseph,-21.3667,55.6167,77.36,91,100,34.78,RE,1643904288
329,Āsmār,35.0333,71.3581,41.29,33,0,11.77,AF,1643904288
330,Jalesar,27.4833,78.3167,54.12,88,4,5.14,IN,1643904289
331,Sabang,5.8933,95.3214,82.44,74,80,9.66,ID,1643904290
332,Vardø,70.3705,31.1107,26.58,68,40,6.91,NO,1643904291
333,Henties Bay,-22.116,14.2845,72.86,70,0,13.38,NA,1643904140
334,Palana,59.1167,159.9667,4.3,87,58,11.61,RU,1643904292
335,Semporna,4.4818,118.6112,77.88,83,81,7.16,MY,1643904293
336,Penzance,50.1186,-5.5371,51.87,87,20,13.8,GB,1643904294
337,Forio,40.7342,13.8646,57.49,58,1,5.48,IT,1643904295
338,Baykit,61.67,96.37,13.82,97,100,3.42,RU,1643904295
339,Ligayan,4.6533,119.4706,81.48,73,76,7.7,PH,1643904296
340,Chicama,-7.8447,-79.1469,64.94,57,96,8.93,PE,1643904297
341,Touho,-20.7833,165.2333,79.27,82,80,2.08,NC,1643904298
342,Polovinnoye,54.7914,65.9864,21.15,85,100,16.55,RU,1643904299
343,Kabo,7.6994,18.629,94.64,11,23,7.25,CF,1643904300
344,Westport,41.1415,-73.3579,44.35,96,100,2.46,US,1643904165
345,Taltal,-25.4,-70.4833,71.76,64,0,8.84,CL,1643904116
346,Klyuchi,52.2667,79.1667,6.96,97,100,6.58,RU,1643904302
347,Zhoucheng,35.9122,116.3117,36.03,43,83,4.23,CN,1643904303
348,Philadelphia,39.9523,-75.1638,44.76,96,100,0.0,US,1643904153
349,Vila do Maio,15.1333,-23.2167,84.99,76,0,11.52,CV,1643904304
350,San Patricio,28.017,-97.5169,42.89,81,100,20.42,US,1643904305
351,Solton,52.8429,86.4787,-1.07,100,69,1.36,RU,1643904306
352,Tynda,55.1667,124.7167,-18.6,93,12,4.99,RU,1643904081
353,Alto Araguaia,-17.3147,-53.2153,81.81,68,88,11.43,BR,1643904308
354,Nome,64.5011,-165.4064,10.47,53,0,32.21,US,1643904068
355,Nicolás Bravo,18.45,-88.9167,81.48,60,44,9.46,MX,1643904309
356,Quatre Cocos,-20.2078,57.7625,80.1,91,100,23.87,MU,1643904310
357,Dingle,10.9995,122.6711,74.16,94,61,7.58,PH,1643904311
358,Muroto-misakicho,33.2833,134.15,47.19,57,97,5.55,JP,1643904312
359,Chapada dos Guimarães,-15.4606,-55.7497,71.26,65,98,9.66,BR,1643904312
360,Bathsheba,13.2167,-59.5167,84.81,61,40,18.41,BB,1643904313
361,Monrovia,6.3005,-10.7969,91.17,67,10,12.95,LR,1643904314
362,Kruisfontein,-34.0033,24.7314,68.88,74,80,18.92,ZA,1643904315
363,Mount Isa,-20.7333,139.5,76.77,44,100,16.11,AU,1643904063
364,Palmer,42.1584,-72.3287,45.63,87,100,3.0,US,1643904316
365,Hualmay,-11.0964,-77.6139,75.43,70,90,10.58,PE,1643904317
366,Sur,22.5667,59.5289,70.7,57,0,13.91,OM,1643904318
367,Flin Flon,54.7682,-101.865,-26.25,96,90,6.06,CA,1643904319
368,São José de Ribamar,-2.5619,-44.0542,89.98,75,100,11.88,BR,1643904320
369,Itoman,26.1247,127.6694,64.42,82,98,5.75,JP,1643904321
370,Lebedinyy,58.5167,125.5167,-17.0,100,100,1.86,RU,1643904322
371,San Juan,-31.5375,-68.5364,86.45,33,2,10.25,AR,1643904323
372,Lerik,38.7726,48.4128,29.84,43,47,9.82,AZ,1643904324
373,Saint Anthony,45.0205,-93.218,-1.21,67,0,1.99,US,1643904324
374,Taicheng,38.731,113.228,19.96,28,96,5.06,CN,1643904325
375,Djibo,14.1022,-1.6306,87.94,7,2,11.54,BF,1643904326
376,Røros,62.5747,11.3842,21.04,86,100,13.8,NO,1643904327
377,Lagos,6.5833,3.75,88.92,44,94,9.55,NG,1643904188
378,Prachuap Khiri Khan,12.2167,99.75,69.44,93,49,2.64,TH,1643904328
379,Fort-Shevchenko,44.5086,50.263,47.07,61,8,17.29,KZ,1643904329
380,Vanimo,-2.6741,141.3028,76.41,86,93,2.93,PG,1643904330
381,Ahipara,-35.1667,173.1667,69.35,90,77,12.26,NZ,1643904331
382,Varberg,57.1056,12.2508,40.05,92,100,12.84,SE,1643904332
383,Tabou,4.423,-7.3528,84.83,62,10,10.98,CI,1643904333
384,Coquimbo,-29.9533,-71.3436,69.53,68,40,12.66,CL,1643904333
385,João Pinheiro,-17.7425,-46.1725,83.14,57,73,4.63,BR,1643904334
386,Batemans Bay,-35.7167,150.1833,58.91,80,30,9.4,AU,1643904335
387,Takoradze,4.8845,-1.7554,84.99,63,27,12.88,GH,1643904336
388,Snyder,32.7179,-100.9176,16.52,67,100,16.11,US,1643904337
389,Plyussa,58.4308,29.3654,10.33,99,99,2.42,RU,1643904337
390,Angoram,-4.0625,144.0661,72.79,96,100,0.72,PG,1643904338
391,Isla Mujeres,21.2311,-86.731,84.25,78,30,16.78,MX,1643904339
392,Aykhal,66.0,111.5,-21.3,100,49,2.66,RU,1643904340
393,Hailey,43.5196,-114.3153,6.01,84,2,4.07,US,1643904341
394,Hammerfest,70.6634,23.6821,24.53,73,0,11.5,NO,1643904341
395,Reconquista,-29.15,-59.65,93.92,32,98,7.76,AR,1643904342
396,Nouadhibou,20.931,-17.0347,71.01,57,0,8.7,MR,1643904343
397,Lincoln,40.8,-96.667,7.66,59,15,3.0,US,1643904069
398,Amga,60.8953,131.9608,-13.29,96,100,3.58,RU,1643904344
399,Casatenovo,45.6964,9.3117,52.72,61,69,1.01,IT,1643904345
400,Makat,47.6469,53.3463,33.85,86,98,18.63,KZ,1643904346
401,Clyde River,70.4692,-68.5914,-13.65,98,100,8.48,CA,1643904347
402,Haldaur,29.3,78.2833,52.43,88,98,12.64,IN,1643904348
403,Tàrrega,41.647,1.1396,68.32,34,37,6.62,ES,1643904349
404,Show Low,34.2542,-110.0298,17.71,61,0,1.01,US,1643904159
405,Dolinsk,47.35,142.8,14.0,81,83,12.86,RU,1643904350
406,Moreira Sales,-24.0622,-53.0069,74.73,89,100,7.78,BR,1643904351
407,Margate,51.3813,1.3862,49.95,77,90,12.26,GB,1643904096
408,Goldsboro,35.3849,-77.9928,69.73,72,40,8.05,US,1643904352
409,Chifeng,42.2683,118.9636,3.25,72,0,5.28,CN,1643904253
410,Anchorage,61.2181,-149.9003,22.66,75,100,8.01,US,1643904354
411,Krasnovishersk,60.4078,57.082,12.33,99,100,1.86,RU,1643904355
412,Lata,40.1629,-8.3327,60.04,51,100,5.75,PT,1643904355
413,Aklavik,68.2191,-135.0107,-24.16,98,99,4.45,CA,1643904079
414,Kidal,18.4411,1.4078,78.8,8,59,16.53,ML,1643904357
415,Zhezkazgan,47.8043,67.7144,4.33,88,7,6.6,KZ,1643904358
416,Agadez,19.75,10.25,65.39,14,0,13.27,NE,1643904359
417,Cairns,-16.9167,145.7667,82.11,82,40,5.75,AU,1643904360
418,Viedma,-40.8135,-62.9967,88.32,21,0,10.89,AR,1643904360
419,Zacualpan,21.25,-105.1667,73.02,52,40,1.68,MX,1643904361
420,Falam,22.9167,93.6833,45.73,70,0,1.03,MM,1643904362
421,Karpogory,64.0019,44.4451,7.66,99,99,1.7,RU,1643904363
422,Shaunavon,49.6501,-108.4181,4.48,83,100,8.23,CA,1643904364
423,Nynäshamn,58.9034,17.9479,28.62,90,67,6.44,SE,1643904365
424,Madison,34.7334,-86.5667,59.34,92,100,1.99,US,1643904291
425,Dakar,14.6937,-17.4441,94.08,48,5,6.04,SN,1643904123
426,Manzhouli,49.6,117.4333,-15.09,92,8,7.09,CN,1643904367
427,Kungurtug,50.5994,97.5228,-11.38,98,95,1.48,RU,1643904367
428,Murchison,-41.8,172.3333,64.76,99,100,2.51,NZ,1643904368
429,Toamasina,-18.1667,49.3833,71.47,91,100,14.47,MG,1643904369
430,Dolgoye,52.8,37.2167,24.53,97,100,4.54,RU,1643904370
431,Hamilton,39.1834,-84.5333,32.41,94,100,3.0,US,1643903992
432,Gongzhuling,43.5008,124.8198,6.8,81,11,7.9,CN,1643904372
433,Otane,-39.8833,176.6333,66.0,82,37,2.35,NZ,1643904372
434,Nantucket,41.2835,-70.0995,46.51,100,100,4.61,US,1643904163
435,Pekalongan,-6.8886,109.6753,77.31,84,99,6.53,ID,1643904374
436,Clearwater,27.9659,-82.8001,79.18,70,0,1.99,US,1643904153
437,Kosa,59.9445,54.9977,7.95,99,100,2.93,RU,1643904375
438,Nadīgaon,26.1167,79.0333,63.09,42,11,13.6,IN,1643904376
439,Paamiut,61.994,-49.6678,24.21,94,100,19.3,GL,1643904088
440,Cuité,-6.4836,-36.1536,89.56,32,38,11.16,BR,1643904377
441,Bobo-Dioulasso,11.1771,-4.2979,90.77,6,20,6.26,BF,1643904378
442,Orissaare,58.5592,23.0826,28.9,95,61,3.69,EE,1643904379
443,Praia da Vitória,38.7333,-27.0667,58.64,73,69,11.5,PT,1643904380
444,Neiafu,-18.65,-173.9833,79.61,82,100,19.39,TO,1643904381
445,Portland,45.5234,-122.6762,44.26,94,90,1.01,US,1643904009
446,Ha Tinh,18.3333,105.9,59.58,88,100,2.95,VN,1643904382
447,Beaverlodge,55.2166,-119.4361,1.36,97,100,2.08,CA,1643904383
448,Alofi,-19.0595,-169.9187,81.45,74,97,18.45,NU,1643904384
449,San Onofre,9.7359,-75.5263,89.29,51,2,6.2,CO,1643904385
450,Taguatinga,-12.3857,-46.5711,88.9,50,18,4.16,BR,1643904386
451,Trairi,-3.2778,-39.2689,84.07,68,100,10.96,BR,1643904387
452,Adrar,20.5022,-10.0711,80.22,9,0,14.94,MR,1643904387
453,Sakakah,29.9697,40.2064,64.29,30,53,8.68,SA,1643904388
454,Eureka,40.8021,-124.1637,47.19,86,100,1.99,US,1643904334
455,Deputatsky,69.3,139.9,-23.49,91,61,1.07,RU,1643904390
456,Shirokiy,49.758,129.523,-19.34,100,11,5.28,RU,1643904391
457,Kampong Thom,12.7111,104.8887,80.02,59,36,5.68,KH,1643904391
458,Porto Walter,-8.2686,-72.7439,76.77,77,100,3.98,BR,1643904392
459,Kimbe,-5.5502,150.1429,75.49,95,100,8.39,PG,1643904393
460,Utmanzai,34.188,71.7629,52.41,43,0,3.65,PK,1643904394
461,Furano,43.2818,142.4743,10.98,96,90,5.28,JP,1643904395
462,Jiaojiang,28.6803,121.4428,42.01,96,100,7.52,CN,1643904395
463,Ontario,34.0633,-117.6509,55.31,35,0,1.01,US,1643904396
464,Koslan,63.4564,48.8989,18.32,96,100,5.08,RU,1643904397
465,Nambucca Heads,-30.65,153.0,68.16,84,50,14.7,AU,1643904398
466,Marsh Harbour,26.5412,-77.0636,74.01,64,93,20.76,BS,1643904399
467,Winton,37.3894,-120.6133,48.51,93,0,0.0,US,1643904400
468,Nosy Varika,-20.5833,48.5333,72.12,96,100,9.35,MG,1643904400
469,Baiyin,36.5583,104.2081,21.96,36,1,4.88,CN,1643904401
470,Abhā,18.2164,42.5053,59.25,82,0,10.36,SA,1643904402
471,Manhattan,40.7834,-73.9662,44.73,94,100,6.91,US,1643903960
472,Makakilo City,21.3469,-158.0858,70.68,81,0,4.61,US,1643904403
473,Meadow Lake,34.8014,-106.5436,17.11,79,93,3.47,US,1643904404
474,Mstera,56.3789,41.92,9.25,99,86,1.99,RU,1643904405
475,Padang,-0.9492,100.3543,75.25,90,100,3.96,ID,1643904406
476,Lukang,24.0567,120.4352,65.44,90,71,22.93,TW,1643904407
477,San Matías,-16.3667,-58.4,85.68,72,56,7.16,BO,1643904407
478,Sukhobezvodnoye,57.0491,44.8891,4.77,100,97,0.78,RU,1643904408
479,Teluk Nibung,3.001,99.8164,76.12,89,40,3.22,ID,1643904409
480,Mīnāb,27.1467,57.0801,67.5,36,0,3.83,IR,1643904410
481,Santa Cruz de Barahona,18.2085,-71.1008,84.02,65,40,0.0,DO,1643904411
482,Beloha,-25.1667,45.05,75.67,75,1,19.22,MG,1643904412
483,Nuevo Progreso,23.1667,-97.95,78.6,81,70,11.01,MX,1643904412
484,Xai-Xai,-25.0519,33.6442,83.25,71,0,14.56,MZ,1643904413
485,New Plymouth,-39.0667,174.0833,64.31,71,10,12.35,NZ,1643904414
486,Zabaykal'sk,49.6333,117.3167,-17.19,95,10,6.46,RU,1643904415
487,Beringovskiy,63.05,179.3167,0.59,81,100,20.07,RU,1643904416
488,Ryazhsk,53.7038,40.1109,12.58,97,100,5.06,RU,1643904416
489,Palu,-0.8917,119.8707,75.88,95,100,1.28,ID,1643904417
490,Churapcha,62.0025,132.4325,-24.74,100,100,3.22,RU,1643904418
491,Dhidhdhoo,6.8833,73.1,81.25,71,4,6.42,MV,1643904419
492,Nador,35.174,-2.9287,66.45,48,0,9.22,MA,1643904420
493,Irkutsk,52.2978,104.2964,-5.03,77,58,4.47,RU,1643904421
494,Camacha,33.0833,-16.3333,65.53,88,40,14.97,PT,1643904422
495,Nové Město nad Metují,50.3446,16.1515,41.67,99,99,5.3,CZ,1643904422
496,Mogadishu,2.0371,45.3438,78.89,80,70,19.62,SO,1643904323
497,Kuytun,54.3419,101.5036,-2.96,98,100,1.88,RU,1643904424
498,Goderich,43.7501,-81.7165,19.9,79,100,17.18,CA,1643904425
499,Tautira,-17.7333,-149.15,78.82,66,21,15.37,PF,1643904426
500,Zhalantun,48.0,122.7167,-7.08,84,36,8.03,CN,1643904426
501,Daru,-9.0763,143.2092,77.76,86,100,10.04,PG,1643904427
502,Province of Mantua,45.1667,10.7833,54.28,74,62,5.99,IT,1643904428
503,Safranbolu,41.2508,32.6942,37.96,99,100,4.72,TR,1643904429
504,Santa Marta,11.2408,-74.199,92.34,69,20,1.01,CO,1643904393
505,Nakhon Phanom,17.3333,104.4167,70.88,74,6,7.27,TH,1643904430
506,Nizwá,22.9333,57.5333,72.91,25,0,1.16,OM,1643904266
507,Naze,28.3667,129.4833,55.27,82,100,13.22,JP,1643904432
508,Tommot,58.9564,126.2925,-7.55,97,100,6.2,RU,1643904433
509,Forsytheganj,52.6333,29.7333,23.56,89,100,10.85,BY,1643904434
510,Plácido de Castro,-10.3353,-67.1856,83.62,73,84,5.39,BR,1643904434
511,Namatanai,-3.6667,152.4333,78.8,79,100,7.96,PG,1643904435
512,Mitsamiouli,-11.3847,43.2844,82.69,76,99,7.81,KM,1643904436
513,Vryburg,-26.9566,24.7284,70.02,86,78,15.23,ZA,1643904437
514,Giohar,2.7809,45.5005,82.33,54,54,19.48,SO,1643904438
515,Turaif,31.6725,38.6637,54.39,37,24,8.37,SA,1643904439
516,Pangody,65.85,74.4859,0.95,100,95,7.38,RU,1643904439
517,Labuhan,-6.8844,112.2051,78.66,84,98,5.41,ID,1643904440
518,Belmonte,-15.8631,-38.8828,84.7,59,45,9.26,BR,1643904441
519,São Gabriel da Cachoeira,-0.1303,-67.0892,80.56,86,86,3.33,BR,1643904442
520,Kanniyākumāri,8.0833,77.5667,77.56,76,4,5.08,IN,1643904443
521,Bāfq,31.6128,55.4107,56.88,18,3,1.61,IR,1643904444
522,Northam,51.0333,-4.2167,52.02,91,82,15.48,GB,1643904445
523,Beihai,21.4833,109.1,54.52,75,53,12.44,CN,1643904445
524,Kargasok,59.0556,80.8572,14.31,95,100,8.23,RU,1643904446
525,Tyristrand,60.0837,10.0966,28.56,97,100,1.32,NO,1643904447
526,Turan,16.0678,108.2208,69.78,73,40,4.61,VN,1643904448
527,Muisne,0.6,-80.0333,79.34,72,77,7.07,EC,1643904449
528,Joshīmath,30.5667,79.5667,38.95,97,100,2.42,IN,1643904450
529,Cururupu,-1.8283,-44.8683,86.29,61,99,6.04,BR,1643904450
530,Alice Springs,-23.7,133.8833,63.95,68,100,6.91,AU,1643904451
531,Kutum,14.2,24.6667,76.95,13,33,13.6,SD,1643904452
