,City,Lat,Lng,Max Temp,Humidity,Cloudiness,Wind Speed,Country,Date
0,Khanbari,27.3747,87.2039,59.74,55,73,4.61,NP,1643875985
1,Llanes,43.4198,-4.7549,53.89,60,100,4.23,ES,1643875986
2,Mount Gambier,-37.8333,140.7667,61.65,59,58,12.5,AU,1643875859
3,Mount Isa,-20.7333,139.5,82.17,65,100,19.57,AU,1643875175
4,Isiro,2.7739,27.616,83.39,27,100,2.84,CD,1643875989
5,Anuchino,43.9622,133.0544,6.85,88,100,3.44,RU,1643875990
6,Maniitsoq,65.4167,-52.9,15.85,74,100,22.19,GL,1643875991
7,Palora,-1.7,-77.9333,63.63,92,58,3.98,EC,1643875992
8,Korla,41.7597,86.1469,32.83,35,98,8.12,CN,1643875994
9,Itaobim,-16.5667,-41.8333,68.7,98,100,1.05,BR,1643875995
10,Saint-Philippe,-21.3585,55.7679,80.15,96,100,34.47,RE,1643875432
11,Busselton,-33.65,115.3333,98.04,30,38,7.76,AU,1643875997
12,Nishihara,26.1842,127.7558,63.68,88,75,14.97,JP,1643875998
13,Santa Barbara,34.7333,-120.0343,44.44,55,0,6.31,US,1643875805
14,Oktyabr'skoye,43.0645,44.7417,35.74,87,56,2.24,RU,1643876000
15,Puerto Ayora,-0.7393,-90.3518,74.55,93,17,3.0,EC,1643876001
16,Veracruz,19.3333,-96.6667,65.88,74,0,3.27,MX,1643876002
17,Chicomuselo,15.7667,-92.2667,67.42,78,28,1.1,MX,1643876004
18,Tarakan,3.3,117.6333,89.1,55,40,1.14,ID,1643876005
19,Kapaa,22.0752,-159.319,73.38,72,0,5.75,US,1643876006
20,Ushuaia,-54.8,-68.3,32.05,93,33,2.01,AR,1643875904
21,Bluff,-46.6,168.3333,55.8,61,100,14.83,NZ,1643876008
22,Bambous Virieux,-20.3428,57.7575,80.22,92,100,25.43,MU,1643875443
23,Beibei,29.8256,106.4339,53.37,52,100,3.06,CN,1643876010
24,Punta Arenas,-53.15,-70.9167,42.91,65,75,6.91,CL,1643875961
25,North Battleford,52.7834,-108.2847,-14.6,92,100,7.34,CA,1643876012
26,Wilmington,34.2257,-77.9447,56.86,88,75,4.61,US,1643875876
27,Tual,-5.6667,132.75,83.48,71,100,12.33,ID,1643875623
28,Saskylakh,71.9167,114.0833,-33.11,100,16,2.1,RU,1643876014
29,Jamestown,42.097,-79.2353,36.3,72,100,4.0,US,1643876016
30,Bredasdorp,-34.5322,20.0403,63.28,75,75,17.25,ZA,1643876017
31,Atuona,-9.8,-139.0333,78.6,76,96,17.85,PF,1643876018
32,Hermanus,-34.4187,19.2345,63.9,80,99,15.05,ZA,1643876019
33,Santa Fe,-31.6333,-60.7,74.01,81,86,8.01,AR,1643876020
34,Husavik,66.0449,-17.3389,26.08,91,100,8.77,IS,1643876022
35,Mahébourg,-20.4081,57.7,80.26,91,100,26.6,MU,1643876023
36,Kupang,-10.1667,123.5833,80.65,85,95,12.68,ID,1643876024
37,Yellowknife,62.456,-114.3525,-30.59,82,34,11.01,CA,1643876025
38,Rikitea,-23.1203,-134.9692,77.52,77,100,10.45,PF,1643876027
39,Puerto Escondido,15.85,-97.0667,72.61,81,0,5.35,MX,1643875560
40,Lebu,-37.6167,-73.65,56.8,95,15,8.81,CL,1643876029
41,Ejido,8.5514,-71.2375,59.23,65,21,7.65,VE,1643876030
42,São Filipe,14.8961,-24.4956,73.38,74,0,10.49,CV,1643875448
43,Albany,42.6001,-73.9662,44.47,87,100,2.8,US,1643875992
44,Sola,-13.8833,167.55,81.84,78,100,18.03,VU,1643875722
45,Lorengau,-2.0226,147.2712,80.13,79,100,7.72,PG,1643876033
46,Tasiilaq,65.6145,-37.6368,10.56,60,55,7.72,GL,1643876034
47,Rafai,4.95,23.9167,88.38,18,99,4.14,CF,1643876035
48,Hobyo,5.3505,48.5268,80.98,63,100,20.56,SO,1643876037
49,Ngunguru,-35.6167,174.5,71.17,90,76,11.56,NZ,1643875735
50,Mineiros,-17.5694,-52.5511,67.46,95,100,4.47,BR,1643876038
51,Eureka,40.8021,-124.1637,48.2,91,74,5.46,US,1643875776
52,Hithadhoo,-0.6,73.0833,81.9,69,51,1.86,MV,1643876040
53,Spitsevka,45.1231,42.5125,41.41,89,94,3.56,RU,1643876041
54,Carnarvon,-24.8667,113.6333,84.85,62,0,19.95,AU,1643876043
55,Hobart,-42.8794,147.3294,64.02,59,75,14.97,AU,1643875786
56,Kingisepp,59.3733,28.6134,12.4,97,89,1.43,RU,1643876044
57,Longyearbyen,78.2186,15.6401,19.24,45,0,4.61,SJ,1643876046
58,Quatre Cocos,-20.2078,57.7625,80.1,91,100,23.67,MU,1643875551
59,Egvekinot,66.3167,-179.1667,-10.79,78,3,18.03,RU,1643875700
60,Sunrise Manor,36.2111,-115.0731,40.87,24,0,1.01,US,1643876048
61,Torbay,47.6666,-52.7314,28.58,85,8,3.0,CA,1643876049
62,Fort Nelson,58.8053,-122.7002,-10.46,97,100,6.04,CA,1643876051
63,Almaznyy,48.0448,40.045,42.94,89,100,17.69,RU,1643876052
64,Christchurch,-43.5333,172.6333,63.91,85,75,5.99,NZ,1643875855
65,Paramirim,-13.4425,-42.2389,67.44,88,19,2.93,BR,1643876054
66,Garissa,-0.4536,39.6401,89.1,47,100,9.71,KE,1643876055
67,San Policarpo,12.1791,125.5072,79.65,83,100,13.38,PH,1643875573
68,Norman Wells,65.282,-126.8329,-33.92,100,82,3.65,CA,1643875500
69,Burns Lake,54.2331,-125.7533,13.84,96,100,2.33,CA,1643876057
70,Sabang,5.8933,95.3214,82.27,73,4,14.81,ID,1643875910
71,Port Alfred,-33.5906,26.891,73.44,86,99,10.92,ZA,1643876059
72,Tommot,58.9564,126.2925,-4.67,95,100,7.16,RU,1643876060
73,Cherskiy,68.75,161.3,-21.87,89,92,0.36,RU,1643875527
74,Alexandria,31.2156,29.9553,57.31,55,93,20.42,EG,1643875708
75,Ponta do Sol,32.6667,-17.1,68.13,52,100,14.74,PT,1643875519
76,Soe,-9.8607,124.284,76.06,70,99,9.22,ID,1643875494
77,Khatanga,71.9667,102.5,-33.7,99,24,1.12,RU,1643876064
78,Barra de Tecoanapa,16.5167,-98.75,70.54,79,0,4.52,MX,1643876065
79,Vaini,-21.2,-175.2,78.96,94,40,2.3,TO,1643876067
80,Yangi Marg`ilon,40.4272,71.7189,45.82,57,8,2.3,UZ,1643876068
81,Hong Kong,22.2855,114.1577,60.94,85,100,1.01,HK,1643875367
82,Barrow,71.2906,-156.7887,-23.78,76,75,6.91,US,1643876070
83,Tutóia,-2.7619,-42.2744,77.34,87,90,8.77,BR,1643876071
84,Masallātah,32.6167,14.0,56.7,67,82,21.54,LY,1643876072
85,Esperance,-33.8667,121.9,75.83,52,8,24.58,AU,1643875706
86,Bengkulu,-3.8004,102.2655,85.62,62,83,5.93,ID,1643876074
87,Karangampel,-6.4622,108.4519,85.35,69,55,13.04,ID,1643876075
88,Port Augusta,-32.5,137.7667,85.71,43,0,23.73,AU,1643875834
89,Yamethin,20.4333,96.15,84.33,23,62,6.13,MM,1643876077
90,Airai,-8.9266,125.4092,68.63,75,75,3.85,TL,1643876078
91,Malinovoye Ozero,51.6753,79.7825,17.33,86,98,2.86,RU,1643876080
92,Ribeira Grande,38.5167,-28.7,57.6,77,20,9.22,PT,1643876081
93,Butaritari,3.0707,172.7902,82.11,77,100,13.53,KI,1643876082
94,Severo-Kuril'sk,50.6789,156.125,29.82,82,100,11.77,RU,1643876083
95,Yaan,7.3833,8.5667,81.32,11,33,9.71,NG,1643875650
96,Bud,39.447,-86.1758,30.15,94,100,15.08,US,1643876085
97,Hirara,24.8,125.2833,67.86,94,75,18.41,JP,1643876086
98,Mataura,-46.1927,168.8643,55.47,66,100,4.54,NZ,1643876088
99,Ekhabi,53.5102,142.9671,4.71,93,100,24.7,RU,1643876089
100,Bereda,43.2686,-7.5406,47.95,97,99,2.17,ES,1643876090
101,Kyaikkami,16.08,97.5675,81.05,44,1,11.95,MM,1643876091
102,Cayenne,4.9333,-52.3333,75.09,91,75,6.91,GF,1643875826
103,Upernavik,72.7868,-56.1549,-8.21,63,100,7.99,GL,1643876093
104,Alofi,-19.0595,-169.9187,81.12,71,55,21.5,NU,1643875612
105,Iquitos,-3.7481,-73.2472,75.24,100,75,2.3,PE,1643876095
106,Örnsköldsvik,63.2909,18.7153,5.95,92,100,4.61,SE,1643876096
107,Saldanha,-33.0117,17.9442,68.45,77,48,10.94,ZA,1643876097
108,Ust'-Uda,54.1742,103.0304,7.97,88,27,0.76,RU,1643876099
109,Östersund,63.1792,14.6357,5.45,92,75,5.75,SE,1643875815
110,San Patricio,28.017,-97.5169,49.86,85,100,19.24,US,1643876101
111,Avarua,-21.2078,-159.775,78.85,89,40,12.66,CK,1643876102
112,Shitkino,56.3703,98.3543,12.02,87,100,3.06,RU,1643876103
113,Talavera,15.6167,120.9333,87.39,53,48,6.33,PH,1643876104
114,Tuatapere,-46.1333,167.6833,55.81,67,100,7.78,NZ,1643875670
115,Sioux Lookout,50.1001,-91.917,-24.39,98,28,5.39,CA,1643875924
116,Cape Town,-33.9258,18.4232,64.89,91,100,5.01,ZA,1643875830
117,Mar del Plata,-38.0023,-57.5575,72.09,84,100,3.0,AR,1643875678
118,Palana,59.1167,159.9667,10.8,80,100,11.95,RU,1643876108
119,Pacific Grove,36.6177,-121.9166,52.63,41,0,1.01,US,1643875865
120,Nikolskoye,59.7035,30.7861,19.29,96,93,1.23,RU,1643876110
121,Tura,25.5198,90.2201,73.54,35,78,1.03,IN,1643876111
122,Tabou,4.423,-7.3528,77.25,83,20,3.67,CI,1643876112
123,Guangyuan,32.442,105.823,46.31,63,92,3.38,CN,1643876114
124,Columbus,39.9612,-82.9988,35.47,94,100,1.99,US,1643875801
125,Talaya,61.3833,152.75,-25.47,100,95,3.87,RU,1643875592
126,Hilo,19.7297,-155.09,70.79,89,100,4.61,US,1643875915
127,Mbandaka,0.0487,18.2603,76.46,49,100,3.31,CD,1643876117
128,Yatou,37.15,122.3833,34.86,40,3,5.06,CN,1643876118
129,Palmer,42.1584,-72.3287,41.41,85,100,6.91,US,1643875686
130,Itarema,-2.9248,-39.9167,76.06,89,99,7.61,BR,1643876120
131,East London,-33.0153,27.9116,76.14,94,20,13.8,ZA,1643876102
132,Qaanaaq,77.484,-69.3632,-12.82,74,99,8.12,GL,1643876122
133,Klaksvík,62.2266,-6.589,45.52,91,100,41.45,FO,1643876123
134,Arraial do Cabo,-22.9661,-42.0278,73.36,88,75,1.14,BR,1643876124
135,Clyde River,70.4692,-68.5914,-14.57,76,100,21.85,CA,1643876125
136,Kahului,20.8947,-156.47,73.85,76,40,5.75,US,1643875619
137,Chara,56.9064,118.2631,-16.71,94,26,1.39,RU,1643876127
138,Ancud,-41.8697,-73.8203,54.93,92,72,2.26,CL,1643876128
139,Bestöbe,52.4994,73.0975,18.45,84,82,7.72,KZ,1643876130
140,Ilulissat,69.2167,-51.1,-3.78,65,100,9.64,GL,1643875698
141,Dingle,10.9995,122.6711,81.79,75,100,13.2,PH,1643875709
142,Murud,18.3258,72.965,79.99,48,7,10.33,IN,1643876132
143,Dikson,73.5069,80.5464,-10.75,98,93,10.87,RU,1643876133
144,Lavrentiya,65.5833,-171.0,0.45,63,27,22.48,RU,1643876134
145,Katangli,51.7102,143.2326,6.89,94,100,19.62,RU,1643876136
146,Half Moon Bay,37.4636,-122.4286,55.35,55,0,0.0,US,1643876040
147,Āsosa,10.0667,34.5333,80.26,23,82,8.28,ET,1643876138
148,Amuntai,-2.4177,115.2494,90.14,53,91,3.27,ID,1643876139
149,Benjamin Constant,-4.3831,-70.0311,73.53,98,100,2.13,BR,1643876140
150,Abu Samrah,35.3029,37.1841,53.33,46,97,12.26,SY,1643876141
151,Kabrāi,25.4167,80.0167,83.62,25,0,11.99,IN,1643876142
152,Le Port,-20.9373,55.2919,80.56,91,100,20.45,RE,1643875804
153,San Jerónimo,-11.9472,-75.2829,49.84,80,91,1.57,PE,1643876144
154,Marsh Harbour,26.5412,-77.0636,71.85,69,49,16.58,BS,1643876146
155,Tiksi,71.6872,128.8694,-5.15,96,95,7.27,RU,1643876147
156,Black River,18.0264,-77.8487,75.2,85,0,4.5,JM,1643876148
157,Sapa,5.1544,120.3241,82.47,67,100,5.12,PH,1643876149
158,Constantine,36.365,6.6147,40.41,70,0,3.44,DZ,1643876150
159,Samarai,-10.6167,150.6667,82.38,76,100,10.96,PG,1643876152
160,Keti Bandar,24.1447,67.4497,77.38,21,0,3.8,PK,1643876153
161,Ostrovnoy,68.0531,39.5131,19.96,87,100,13.76,RU,1643876154
162,Ambilobe,-13.2,49.05,84.7,69,100,8.34,MG,1643875662
163,Santa Cruz de la Sierra,-17.8,-63.1667,72.86,94,20,6.91,BO,1643876032
164,Saint Paul Harbor,57.79,-152.4072,38.71,87,100,9.22,US,1643876157
165,Jizan,17.3333,42.6667,86.94,52,91,4.18,SA,1643876158
166,El Salvador,13.8333,-88.9167,61.2,91,0,1.39,SV,1643876159
167,Kavieng,-2.5744,150.7967,80.28,79,100,12.26,PG,1643876160
168,Manavālakurichi,8.1333,77.3,86.09,54,9,6.85,IN,1643876162
169,Tilichiki,60.4667,166.1,3.76,81,100,12.06,RU,1643876163
170,Padang,-0.9492,100.3543,87.85,77,84,3.85,ID,1643876164
171,George Town,5.4112,100.3354,89.53,69,20,1.01,MY,1643875888
172,Haines Junction,60.7522,-137.5108,-20.25,76,100,1.14,CA,1643876166
173,Labuan,5.2767,115.2417,86.16,74,20,9.22,MY,1643876167
174,Yulara,-25.2406,130.9889,82.24,28,100,14.97,AU,1643876168
175,Ürümqi,43.801,87.6005,7.75,85,31,4.47,CN,1643876170
176,Port Elizabeth,-33.918,25.5701,75.49,69,100,16.11,ZA,1643876171
177,Sitka,57.0531,-135.33,35.49,100,100,4.61,US,1643875900
178,Turukhansk,65.8167,87.9833,-5.8,97,27,3.67,RU,1643876173
179,Faya,18.3851,42.4509,68.11,43,96,4.45,SA,1643876174
180,Tuktoyaktuk,69.4541,-133.0374,-13.59,97,100,10.51,CA,1643876175
181,Pisco,-13.7,-76.2167,66.25,82,0,3.44,PE,1643876177
182,Khovd,48.0056,91.6419,1.2,92,90,3.62,MN,1643876178
183,Peniche,39.3558,-9.3811,50.45,79,100,2.95,PT,1643876179
184,Faanui,-16.4833,-151.75,80.71,77,14,19.86,PF,1643876180
185,Rafaela,-31.2503,-61.4867,71.98,69,98,3.83,AR,1643876182
186,College,64.8569,-147.8028,-6.14,68,0,4.61,US,1643876183
187,Juneau,58.3019,-134.4197,26.83,92,100,5.75,US,1643876003
188,Vao,-22.6667,167.4833,79.88,80,0,6.62,NC,1643876185
189,Thompson,55.7435,-97.8558,-21.84,69,0,9.22,CA,1643876090
190,Polewali,-3.4324,119.3435,82.89,78,100,3.38,ID,1643876186
191,Khandyga,62.6667,135.6,-24.25,98,100,0.69,RU,1643876188
192,Baijiantan,45.6333,85.1833,14.2,78,20,3.36,CN,1643875638
193,Guerrero Negro,27.9769,-114.0611,55.17,31,0,4.65,MX,1643875728
194,Talnakh,69.4865,88.3972,-9.38,98,98,6.91,RU,1643875695
195,Westport,41.1415,-73.3579,41.16,95,100,1.01,US,1643875990
196,Siguiri,11.6667,-9.5,67.57,17,2,2.44,GN,1643876191
197,Souillac,-20.5167,57.5167,80.37,91,100,25.01,MU,1643875642
198,Sennar,13.5691,33.5672,86.29,15,100,12.12,SD,1643876193
199,Changji,44.0167,87.3167,11.19,85,48,4.47,CN,1643876194
200,Namatanai,-3.6667,152.4333,77.76,86,100,11.03,PG,1643876196
201,Salalah,17.0151,54.0924,84.6,28,0,14.52,OM,1643876197
202,Adrar,20.5022,-10.0711,59.56,18,0,10.98,MR,1643875730
203,Hasaki,35.7333,140.8333,48.6,39,41,3.47,JP,1643876199
204,Zhigansk,66.7697,123.3711,-29.81,100,15,3.44,RU,1643875780
205,Gamba,-2.65,10.0,76.1,87,100,2.26,GA,1643876201
206,Georgiyevka,43.0369,74.7114,37.44,75,40,6.71,KZ,1643876202
207,Huzhou,30.8703,120.0933,37.98,95,100,5.03,CN,1643876203
208,Cookeville,36.1628,-85.5016,54.39,96,100,1.99,US,1643875917
209,Santa Inês,-3.6667,-45.38,71.56,98,94,2.06,BR,1643876205
210,Wanning,18.8003,110.3967,68.29,77,66,14.09,CN,1643876206
211,Bethel,41.3712,-73.414,39.76,91,100,0.0,US,1643876207
212,Belmonte,-15.8631,-38.8828,73.9,83,100,1.1,BR,1643876209
213,Gayéri,12.6497,0.4931,69.31,13,34,10.83,BF,1643876210
214,Caucayá,-0.1934,-74.7819,71.56,85,88,1.21,CO,1643876211
215,Liverpool,53.4106,-2.9779,47.71,90,40,1.01,GB,1643876144
216,Vila Franca do Campo,37.7167,-25.4333,59.41,84,44,8.97,PT,1643875725
217,Siniscola,40.5719,9.6922,38.75,55,11,4.47,IT,1643876213
218,Catalina,32.5056,-110.9211,35.96,23,0,6.91,US,1643876215
219,Bathurst,-33.4166,149.5806,71.96,44,36,3.0,AU,1643875975
220,Ligayan,4.6533,119.4706,82.02,74,100,10.94,PH,1643876217
221,Mlonggo,-6.5333,110.7,85.89,72,98,9.42,ID,1643876218
222,Staryy Nadym,65.6118,72.6842,13.53,95,100,4.27,RU,1643875878
223,La Orilla,17.9833,-102.2333,67.91,87,6,4.83,MX,1643875672
224,Ossora,59.2353,163.0719,11.41,76,100,11.88,RU,1643876220
225,Beidao,34.5686,105.8933,33.89,77,77,3.83,CN,1643876222
226,Udachny,66.4167,112.4,-28.57,100,13,2.57,RU,1643876223
227,Qui Nhon,13.7667,109.2333,76.21,81,30,14.16,VN,1643876202
228,Pindorama,-21.1858,-48.9072,68.05,94,100,4.97,BR,1643876225
229,San Jose,37.3394,-121.895,55.31,47,20,0.0,US,1643876173
230,Castro,-24.7911,-50.0119,60.48,99,74,4.41,BR,1643876226
231,Gander,48.9682,-54.5906,26.73,79,100,20.0,CA,1643876228
232,Ponferrada,42.5466,-6.5962,49.1,48,98,0.94,ES,1643876229
233,Pevek,69.7008,170.3133,-7.96,76,0,4.32,RU,1643876230
234,Athabasca,54.7169,-113.2854,-5.98,98,100,2.19,CA,1643876114
235,Rio Grande,-32.035,-52.0986,75.31,86,6,14.29,BR,1643876232
236,Chokurdakh,70.6333,147.9167,-26.54,97,84,5.73,RU,1643876233
237,Xixiang,35.1628,112.865,44.56,45,13,3.51,CN,1643876235
238,Lata,40.1629,-8.3327,43.05,73,100,2.04,PT,1643876236
239,Tawang Town,27.5833,91.8667,38.25,67,100,7.61,IN,1643876237
240,Nyurba,63.2842,118.3319,-19.77,99,100,3.22,RU,1643876238
241,Forest,37.3638,-79.2897,41.32,94,100,3.44,US,1643876239
242,Port-Gentil,-0.7193,8.7815,79.79,79,100,9.24,GA,1643876069
243,Galveston,29.3669,-94.9669,54.0,93,100,16.71,US,1643876241
244,Zhicheng,30.2956,111.5047,49.06,38,6,5.12,CN,1643876243
245,Atar,20.5169,-13.0499,66.2,21,0,7.83,MR,1643876244
246,Zalesovo,53.9939,84.7431,15.4,92,100,2.8,RU,1643876245
247,Loudi,27.7344,111.9944,46.74,60,92,4.92,CN,1643876246
248,Tazmalt,36.3868,4.3989,54.14,46,0,3.33,DZ,1643876248
249,Avera,33.194,-82.5271,57.9,98,100,8.34,US,1643876249
250,Casablanca,33.5928,-7.6192,52.14,71,21,4.61,MA,1643876149
251,Bantry,51.6833,-9.45,50.79,89,83,13.6,IE,1643876251
252,Cabo San Lucas,22.8909,-109.9124,69.51,69,100,5.97,MX,1643876160
253,Puli,23.9664,120.9695,58.23,85,96,2.39,TW,1643876253
254,Wenling,28.3669,121.36,43.92,88,100,12.46,CN,1643876254
255,Nanortalik,60.1432,-45.2371,26.08,88,100,5.35,GL,1643876255
256,Puerto Baquerizo Moreno,-0.9,-89.6,73.35,84,38,8.12,EC,1643876256
257,Kaitangata,-46.2817,169.8464,57.92,74,100,2.08,NZ,1643876258
258,Broome,42.2506,-75.833,40.84,76,100,1.01,US,1643876259
259,Cidreira,-30.1811,-50.2056,74.32,92,21,15.77,BR,1643876260
260,Izvoarele,45.0333,25.2667,38.32,99,76,2.17,RO,1643876261
261,Grand Gaube,-20.0064,57.6608,81.37,84,100,18.99,MU,1643876263
262,Slave Lake,55.2834,-114.769,-5.82,84,75,4.61,CA,1643876113
263,Lagoa,39.05,-27.9833,57.34,74,9,9.86,PT,1643875736
264,Lhokseumawe,5.1801,97.1507,83.86,69,58,7.2,ID,1643876265
265,Fortuna,40.5982,-124.1573,47.93,92,100,1.99,US,1643876266
266,Cabadiangan,9.7531,122.4739,85.91,60,88,11.63,PH,1643876267
267,Correntina,-13.3433,-44.6367,67.68,94,43,0.47,BR,1643876269
268,Dutlwe,-23.9833,23.9,84.6,45,1,11.95,BW,1643876270
269,Mabaruma,8.2,-59.7833,69.89,99,65,0.65,GY,1643876271
270,Voinka,45.8699,33.9914,35.91,98,100,6.6,UA,1643876272
271,‘Ewa Beach,21.3156,-158.0072,73.69,70,0,3.44,US,1643876274
272,Nerchinskiy Zavod,51.3088,119.61,-3.05,84,71,2.42,RU,1643876275
273,Honiara,-9.4333,159.95,78.91,91,100,8.61,SB,1643876276
274,Xining,36.6167,101.7667,31.37,21,0,5.01,CN,1643876277
275,San Cristobal,7.7669,-72.225,63.45,69,44,1.72,VE,1643875791
276,Linden,6.0,-58.3,69.67,98,7,0.87,GY,1643876114
277,Hecun,36.5333,114.1111,42.3,31,4,6.06,CN,1643876280
278,Achacachi,-16.05,-68.6833,43.41,90,100,5.37,BO,1643876281
279,Wukari,7.85,9.7833,78.98,12,58,10.49,NG,1643876282
280,Bucerías,20.75,-105.3333,65.98,90,1,3.58,MX,1643876284
281,Liwale,-9.7667,37.9333,82.58,65,94,5.44,TZ,1643876285
282,Palazzolo Acreide,37.0623,14.9035,51.19,60,0,4.97,IT,1643876286
283,Parabel',58.6978,81.4825,20.68,88,100,11.74,RU,1643876287
284,Atherton,53.5237,-2.4935,47.28,88,100,1.99,GB,1643875865
285,Iqaluit,63.7506,-68.5145,4.73,71,100,5.01,CA,1643875899
286,Ceyhan,37.0247,35.8175,58.84,63,100,6.8,TR,1643876290
287,Golden,39.7555,-105.2211,4.14,82,18,4.0,US,1643876291
288,Geraldton,-28.7667,114.6,106.21,11,0,14.97,AU,1643876292
289,Dajal,29.5577,70.3762,72.66,20,0,9.71,PK,1643876294
290,Olafsvik,64.8945,-23.7142,29.17,70,86,15.77,IS,1643876295
291,Northam,51.0333,-4.2167,47.25,94,94,10.89,GB,1643875923
292,Charters Towers,-20.1,146.2667,79.07,85,100,9.53,AU,1643876297
293,Djibouti,11.5,42.5,80.02,45,80,15.08,DJ,1643876298
294,Dullewala,31.8359,71.4362,64.56,38,0,6.33,PK,1643876299
295,Port Lincoln,-34.7333,135.8667,65.64,65,2,19.53,AU,1643876189
296,Taksimo,56.3444,114.8794,-7.56,94,18,0.36,RU,1643876301
297,Pandharpur,17.6667,75.3333,89.6,18,73,8.21,IN,1643876302
298,Chipinge,-20.1883,32.6236,81.97,47,60,4.03,ZW,1643876304
299,Valdemārpils,57.3707,22.5919,26.02,92,82,4.23,LV,1643876305
300,Tyup,42.7276,78.3648,28.4,83,100,2.24,KG,1643876306
301,Acapulco de Juárez,16.8634,-99.8901,71.42,88,0,2.3,MX,1643875833
302,Matehuala,23.65,-100.65,60.1,32,0,2.95,MX,1643876048
303,Hanzhong,33.0728,107.0303,48.2,44,86,2.3,CN,1643876309
304,Srednekolymsk,67.45,153.6833,-31.76,100,98,2.04,RU,1643876310
305,Sovetskiy,61.3614,63.5842,19.36,93,100,7.85,RU,1643875876
306,Teknāf,20.8624,92.3058,78.58,38,0,10.94,BD,1643876137
307,Mwanza,-2.5167,32.9,74.86,65,100,4.94,TZ,1643876312
308,Margate,51.3813,1.3862,46.96,88,100,3.0,GB,1643876313
309,Tawao,4.2498,117.8871,87.93,67,78,8.19,MY,1643876315
310,Te Anau,-45.4167,167.7167,56.53,84,100,3.56,NZ,1643876316
311,Isangel,-19.55,169.2667,80.11,85,100,4.61,VU,1643876317
312,Toktogul,41.8708,72.9402,30.24,91,98,0.54,KG,1643876239
313,Roquetas de Mar,36.7642,-2.6148,55.4,49,100,0.85,ES,1643876319
314,Ulaanbaatar,47.9077,106.8832,6.93,66,0,8.95,MN,1643876148
315,Kudahuvadhoo,2.6708,72.8944,82.45,70,0,8.39,MV,1643876321
316,Mokrousovo,55.8103,66.7653,22.91,93,20,10.98,RU,1643876322
317,Labuhan,-6.8844,112.2051,85.5,69,97,8.46,ID,1643876323
318,Esim,4.8699,-2.2405,78.71,78,16,4.23,GH,1643876325
319,Kiunga,-6.1219,141.2906,83.28,70,100,1.59,PG,1643876326
320,Karasjok,69.4719,25.5112,3.31,99,100,2.95,NO,1643876327
321,Kamenka,51.3223,42.7678,32.76,100,100,3.65,RU,1643876328
322,Saint George,37.1041,-113.5841,32.25,32,0,1.01,US,1643876114
323,Puerto Carreño,6.189,-67.4859,76.93,79,97,5.37,CO,1643876330
324,Salinópolis,-0.6136,-47.3561,78.08,84,93,9.82,BR,1643876331
325,Mahibadhoo,3.7833,72.9667,82.17,70,0,9.19,MV,1643876333
326,Rawson,-43.3002,-65.1023,68.81,49,3,12.82,AR,1643876334
327,New Norfolk,-42.7826,147.0587,62.65,49,71,1.99,AU,1643876335
328,Camocim,-2.9022,-40.8411,75.29,90,99,8.61,BR,1643876336
329,Deming,32.2687,-107.7586,31.24,74,20,19.57,US,1643876207
330,Kangaatsiaq,68.3065,-53.4641,-0.35,70,100,14.9,GL,1643876338
331,Santa Marta,11.2408,-74.199,79.9,64,1,5.99,CO,1643876339
332,Bowen,-20.0167,148.2333,84.25,78,71,11.68,AU,1643876341
333,Nikki,9.9401,3.2108,72.84,10,6,8.41,BJ,1643876342
334,Santa Maria da Vitória,-13.3947,-44.1886,69.58,95,64,0.45,BR,1643876343
335,Sechura,-5.5569,-80.8222,70.41,79,78,10.54,PE,1643876344
336,Iroquois Falls,48.7669,-80.6831,-11.06,100,99,3.91,CA,1643876346
337,Aquiraz,-3.9014,-38.3911,82.22,87,99,7.49,BR,1643876347
338,Idritsa,56.3316,28.8988,17.13,97,95,3.15,RU,1643876348
339,Viedma,-40.8135,-62.9967,68.83,48,23,7.36,AR,1643876349
340,Khasan,42.4308,130.6434,22.42,46,5,18.32,RU,1643876351
341,Vardø,70.3705,31.1107,26.8,93,40,12.66,NO,1643875774
342,Koutsouras,35.0339,25.9469,56.1,70,69,13.38,GR,1643876352
343,Chabahar,25.2919,60.643,73.2,36,0,11.59,IR,1643876354
344,Narsaq,60.9167,-46.05,23.22,93,100,12.01,GL,1643876355
345,Provideniya,64.3833,-173.3,2.23,69,98,24.85,RU,1643876356
346,Aksha,50.2814,113.2867,7.57,67,71,7.87,RU,1643876357
347,Vestmannaeyjar,63.4427,-20.2734,25.79,80,0,14.97,IS,1643876359
348,Dakar,14.6937,-17.4441,70.68,75,5,7.72,SN,1643876360
349,Chernushka,56.5072,56.0766,28.9,97,100,16.98,RU,1643876361
350,Albuquerque,35.0845,-106.6511,19.27,77,75,11.99,US,1643876162
351,Arrondissement de Saint-Denis,48.9167,2.3333,45.37,79,100,3.0,FR,1643876363
352,Svay Rieng,11.0879,105.7993,94.78,35,46,4.5,KH,1643876364
353,Marang,5.2056,103.2059,82.31,71,90,7.02,MY,1643876365
354,Comodoro Rivadavia,-45.8667,-67.5,67.86,52,0,12.66,AR,1643876367
355,Pareora,-44.4871,171.2132,58.17,97,100,5.91,NZ,1643876368
356,Houma,29.5958,-90.7195,64.4,86,100,5.01,US,1643876095
357,Kapuskasing,49.4169,-82.4331,-16.51,76,0,3.44,CA,1643876370
358,The Valley,18.217,-63.0578,77.09,74,3,13.33,AI,1643876371
359,Salmo,49.1999,-117.2689,18.09,99,94,3.11,CA,1643876372
360,Los Llanos de Aridane,28.6585,-17.9182,64.15,75,20,5.01,ES,1643875778
361,Dukat,62.55,155.55,-14.33,74,6,7.96,RU,1643876374
362,Ndendé,-2.4008,11.3581,73.35,97,100,0.85,GA,1643876375
363,Mariehamn,60.0973,19.9348,21.06,93,100,2.3,AX,1643876377
364,Balkhash,46.844,74.9804,18.21,62,0,11.18,KZ,1643876378
365,Goderich,43.7501,-81.7165,24.91,86,100,8.05,CA,1643876113
366,Nuevo Progreso,23.1667,-97.95,73.6,81,57,5.1,MX,1643876380
367,Ozernovskiy,51.5,156.5167,30.42,98,100,10.51,RU,1643876381
368,Tigil',57.8,158.6667,15.08,93,100,4.25,RU,1643876382
369,Ponta Delgada,37.7333,-25.6667,58.5,88,20,10.36,PT,1643876383
370,Beringovskiy,63.05,179.3167,7.25,73,96,20.58,RU,1643876385
371,Mossamedes,-15.1961,12.1522,75.38,59,8,7.47,AO,1643876386
372,Tessalit,20.1986,1.0114,61.68,13,5,16.82,ML,1643876387
373,Tiruchchendur,8.4833,78.1167,93.49,56,0,9.48,IN,1643876388
374,Kavaratti,10.5669,72.642,80.1,69,19,7.09,IN,1643876390
375,Zaysan,47.4667,84.8667,7.29,92,69,2.71,KZ,1643876391
376,Canutama,-6.5339,-64.3831,72.01,99,100,1.81,BR,1643876392
377,Laguna,38.421,-121.4238,52.3,58,0,3.0,US,1643876393
378,Tautira,-17.7333,-149.15,80.62,78,33,20.04,PF,1643876395
379,Morondava,-20.2833,44.2833,85.01,69,91,5.75,MG,1643876396
380,Codrington,-38.2667,141.9667,60.91,60,72,16.64,AU,1643876397
381,Paamiut,61.994,-49.6678,24.46,74,100,23.35,GL,1643876398
382,Berlevåg,70.8578,29.0864,22.95,80,75,6.91,NO,1643876400
383,Grindavik,63.8424,-22.4338,21.67,86,20,9.22,IS,1643876401
384,Jacqueville,5.2052,-4.4146,82.31,84,11,6.98,CI,1643876402
385,Kholtoson,50.2981,103.3097,16.14,68,10,3.62,RU,1643876403
386,Kulhudhuffushi,6.6221,73.07,81.28,69,17,2.33,MV,1643876405
387,Port Said,31.2565,32.2841,60.75,48,95,25.26,EG,1643876406
388,Yārāda,17.65,83.2667,84.52,54,20,10.36,IN,1643875928
389,Zeya,53.75,127.2667,-0.45,74,24,5.01,RU,1643876408
390,Banda Aceh,5.5577,95.3222,85.68,64,42,15.17,ID,1643876409
391,Koulikoro,14.0,-7.75,63.14,16,5,7.85,ML,1643876410
392,Kimbe,-5.5502,150.1429,75.65,94,100,4.14,PG,1643876411
393,Roebourne,-20.7833,117.1333,90.23,49,99,18.25,AU,1643876413
394,Mae Hong Son,19.3003,97.9685,86.14,20,0,4.61,TH,1643876414
395,Chifeng,42.2683,118.9636,16.11,43,13,13.49,CN,1643875866
396,Acarí,-15.4311,-74.6158,71.28,83,30,3.15,PE,1643876416
397,Vostok,46.4856,135.8833,-0.81,96,100,6.24,RU,1643876417
398,Bilma,18.6853,12.9164,54.79,29,0,18.57,NE,1643876418
399,Rodrigues Alves,-7.738,-72.6509,71.35,97,100,2.26,BR,1643876420
400,Riyadh,24.6877,46.7219,68.14,22,0,8.05,SA,1643876256
401,Petropavlovsk-Kamchatskiy,53.0452,158.6483,27.19,69,75,4.47,RU,1643876421
402,Tazovsky,67.4667,78.7,-11.42,97,50,12.57,RU,1643876423
403,Cap Malheureux,-19.9842,57.6142,80.47,84,100,18.01,MU,1643876424
404,Fare,-16.7,-151.0167,80.67,77,8,20.29,PF,1643876425
405,Babstovo,48.1167,132.4833,-3.95,93,58,5.06,RU,1643876426
406,Longyan,25.1072,117.0225,50.23,97,100,1.86,CN,1643876428
407,Nantucket,41.2835,-70.0995,43.14,94,100,8.05,US,1643876429
408,Panna,24.7167,80.2,82.94,21,0,14.23,IN,1643876430
409,Hualmay,-11.0964,-77.6139,69.13,84,12,7.81,PE,1643876431
410,Avdeyevka,48.1399,37.7426,32.65,100,100,3.09,UA,1643876432
411,Lüderitz,-26.6481,15.1594,71.11,70,0,4.34,NA,1643876434
412,Sūsangerd,31.5608,48.1831,66.22,32,4,0.11,IR,1643876435
413,Martapura,-3.4167,114.85,86.09,70,20,4.61,ID,1643876436
414,San Vicente,-26.6167,-54.1333,66.06,90,73,2.73,AR,1643876437
415,San Juan de Abajo,20.8167,-105.1833,65.68,77,1,3.36,MX,1643876439
416,Ouahigouya,13.5828,-2.4216,66.42,14,2,11.41,BF,1643876440
417,Waingapu,-9.6567,120.2641,86.07,67,66,15.26,ID,1643876441
418,Necochea,-38.5473,-58.7368,63.03,82,100,9.37,AR,1643876443
419,Pangnirtung,66.1451,-65.7125,5.99,96,100,2.73,CA,1643876444
420,Yantikovo,55.8216,47.9104,21.92,94,100,2.98,RU,1643876445
421,Tatarskaya Pishlya,54.0608,44.8998,27.9,96,100,6.46,RU,1643876446
422,Pangai,-19.8,-174.35,81.03,78,14,13.62,TO,1643876447
423,São João da Barra,-21.6403,-41.0511,72.16,95,100,5.82,BR,1643876414
424,Byndoor,13.8667,74.6333,83.26,60,3,8.5,IN,1643876449
425,Saint-Leu,-21.15,55.2833,79.63,90,100,18.66,RE,1643876451
426,Sobolevo,54.4299,31.8996,24.04,96,98,5.61,RU,1643876452
427,Teahupoo,-17.8333,-149.2667,75.16,78,36,20.87,PF,1643876453
428,Yakymivka,46.6897,35.1536,35.2,99,100,7.27,UA,1643876454
429,Lahaina,20.8783,-156.6825,72.81,81,19,7.29,US,1643876456
430,Katsuura,35.1333,140.3,50.18,44,84,2.13,JP,1643876457
431,Ahipara,-35.1667,173.1667,68.47,89,76,11.1,NZ,1643876458
432,San Juan,-31.5375,-68.5364,77.13,42,9,3.67,AR,1643876459
433,Alta Floresta,-9.8756,-56.0861,70.88,95,100,1.48,BR,1643876460
434,Mugango,-1.6833,33.7,79.39,54,100,1.68,TZ,1643876462
435,Nuuk,64.1835,-51.7216,25.41,68,100,14.97,GL,1643876452
436,Walvis Bay,-22.9575,14.5053,74.35,60,20,4.61,NA,1643876464
437,Cape Canaveral,28.4058,-80.6048,68.04,86,0,4.61,US,1643876262
438,Kalmunai,7.4167,81.8167,82.92,59,4,6.26,LK,1643876465
439,Wuwei,37.9281,102.6414,28.67,23,1,4.43,CN,1643876467
440,Redmond,47.674,-122.1215,45.52,90,100,3.0,US,1643876285
441,Kristinestad,62.2743,21.376,6.66,98,57,2.48,FI,1643876468
442,Lixouri,38.2019,20.4314,50.0,46,20,11.5,GR,1643876470
443,Chernyshevskiy,63.0128,112.4714,-6.32,98,100,1.39,RU,1643876471
444,Bam,29.106,58.357,59.18,22,0,4.97,IR,1643876472
445,Oga,46.4631,10.347,33.08,92,75,4.68,IT,1643876473
446,Potam,27.6,-110.3833,50.92,35,34,9.64,MX,1643876475
447,Ueckermünde,53.7379,14.0447,40.55,87,100,9.42,DE,1643876476
448,Marzuq,14.4,46.4667,72.86,19,6,7.07,YE,1643876477
449,Irtyshskiy,58.3333,68.1333,20.88,93,82,8.68,RU,1643876478
450,Scarborough,54.2797,-0.4044,47.08,87,100,5.99,GB,1643876433
451,Tiznit Province,29.5833,-9.5,61.54,29,9,8.61,MA,1643876480
452,Dudinka,69.4058,86.1778,-15.57,100,100,5.48,RU,1643876482
453,Touros,-5.1989,-35.4608,74.3,77,99,10.94,BR,1643876483
454,Ko Samui,9.5357,99.9357,85.91,70,40,14.97,TH,1643876484
455,Stratford,41.1845,-73.1332,41.09,93,100,0.0,US,1643876485
456,Zyryanka,65.75,150.85,-23.01,95,15,8.88,RU,1643876487
457,Koundara,12.4833,-13.3,67.62,47,4,1.99,GN,1643876488
458,Tocopilla,-22.092,-70.1979,67.82,73,9,8.79,CL,1643876489
459,Misawa,40.6836,141.3597,27.61,74,25,13.82,JP,1643876490
460,Jiuquan,39.7432,98.5174,30.33,33,5,9.19,CN,1643876492
461,Naze,28.3667,129.4833,54.52,83,100,21.18,JP,1643876493
462,Guacamayas,18.0167,-102.2167,67.3,89,7,4.72,MX,1643876494
463,Brae,60.3964,-1.353,46.31,94,100,22.12,GB,1643876495
464,Kerema,-7.9631,145.7785,82.27,71,100,3.62,PG,1643876497
465,Aswān,24.0934,32.907,67.3,30,0,10.36,EG,1643876498
466,São Félix do Xingu,-6.6447,-51.995,70.56,99,100,0.38,BR,1643876499
467,Alberton,46.8168,-64.0654,37.31,97,100,19.84,CA,1643876500
468,Swift Current,50.2834,-107.8014,-8.59,77,0,20.71,CA,1643876502
469,Maxixe,-23.8597,35.3472,89.42,62,20,4.61,MZ,1643876503
470,Broken Hill,-31.95,141.4333,77.94,21,0,22.17,AU,1643876504
471,Mnogovershinnyy,53.9353,139.9242,-2.74,97,100,6.38,RU,1643876412
472,Baicheng,45.6167,122.8167,8.55,74,7,3.65,CN,1643876506
473,Yar-Sale,66.8333,70.8333,6.76,96,100,6.42,RU,1643875927
474,Caravelas,-17.7125,-39.2481,73.44,92,97,2.17,BR,1643876508
475,Raudeberg,61.9875,5.1352,36.86,84,100,3.0,NO,1643876509
476,Sawtell,-30.3833,153.1,70.18,88,75,18.41,AU,1643876510
477,Prado,-17.3411,-39.2208,73.69,91,99,2.8,BR,1643876512
478,Manaure,11.7751,-72.4445,76.12,82,0,9.62,CO,1643876513
479,Port Macquarie,-31.4333,152.9167,69.89,78,88,16.64,AU,1643876296
480,Orcotuna,-11.9667,-75.3333,48.04,81,94,1.41,PE,1643876515
481,Merauke,-8.4667,140.3333,82.98,72,100,9.73,ID,1643876516
482,Río Gallegos,-51.6226,-69.2181,46.45,71,75,8.05,AR,1643876517
483,Šiauliai,55.9333,23.3167,23.02,93,75,5.75,LT,1643876518
484,Nabire,-3.3667,135.4833,81.45,82,100,2.8,ID,1643876520
485,Kungurtug,50.5994,97.5228,7.34,82,71,1.14,RU,1643876521
486,Ucluelet,48.9329,-125.5528,43.09,92,100,2.57,CA,1643876522
487,San Martín,-33.081,-68.4681,70.34,53,12,4.03,AR,1643876523
488,Ruteng,-8.6136,120.4721,71.73,71,100,7.0,ID,1643876525
489,Bandarbeyla,9.4942,50.8122,79.45,58,12,19.71,SO,1643876526
490,Pitimbu,-7.4706,-34.8086,77.59,77,43,9.86,BR,1643876527
491,Ulladulla,-35.35,150.4667,68.09,76,83,17.69,AU,1643876528
492,Cividale del Friuli,46.0931,13.4275,45.68,72,2,3.31,IT,1643876530
493,Santarém,-2.4431,-54.7083,75.33,94,40,3.44,BR,1643876531
494,Birobidzhan,48.8,132.95,-2.29,96,79,3.69,RU,1643876532
495,Ellensburg,46.9965,-120.5479,28.49,79,0,0.0,US,1643876446
496,Hofn,64.2539,-15.2082,28.42,59,100,10.36,IS,1643876534
497,Jilikŭl,37.4917,68.5311,54.72,72,100,5.5,TJ,1643876535
498,Florián,5.8049,-73.9703,56.64,82,10,4.76,CO,1643876536
499,Sandnessjøen,66.0217,12.6316,24.91,58,75,5.99,NO,1643876538
500,Tiarei,-17.5333,-149.3333,80.62,77,16,20.87,PF,1643876539
501,Chapais,49.7834,-74.8492,-2.42,91,100,7.45,CA,1643876270
502,Nemuro,43.3236,145.575,23.43,76,91,8.48,JP,1643876541
503,Eyl,7.9803,49.8164,82.65,50,22,22.5,SO,1643876520
504,Wana,32.2989,69.5725,51.82,17,0,1.81,PK,1643876543
505,Aberdeen,57.1437,-2.0981,50.49,86,100,8.05,GB,1643876295
506,Dekar,-21.5333,21.9333,81.14,52,12,10.83,BW,1643876544
507,Yamada,39.4667,141.95,32.16,58,16,8.84,JP,1643876546
508,Maralal,1.0968,36.698,70.77,48,100,11.32,KE,1643876547
509,Suicheng,33.8963,117.9331,47.98,35,100,3.0,CN,1643876548
510,Zhigalovo,54.8097,105.1578,8.24,87,47,0.51,RU,1643876549
511,Yeppoon,-23.1333,150.7333,82.18,85,100,11.12,AU,1643876551
512,Manta,-0.95,-80.7333,76.78,88,100,2.3,EC,1643876552
513,Vila Velha,-20.3297,-40.2925,75.15,97,75,2.3,BR,1643876541
514,Honningsvåg,70.9821,25.9704,15.33,62,100,15.55,NO,1643876554
515,Chui,-33.6971,-53.4616,68.79,95,36,7.47,UY,1643876555
516,San Quintín,30.4833,-115.95,55.42,61,0,7.36,MX,1643876556
517,Prainha,-1.8,-53.48,71.19,96,59,2.51,BR,1643876557
518,Itaituba,-4.2761,-55.9836,72.57,99,99,1.72,BR,1643876559
519,Mazatán,14.8667,-92.45,71.67,100,0,0.0,MX,1643876560
520,Poznań,52.4069,16.9299,36.9,97,75,4.0,PL,1643876487
521,Bandundu Province,-3.3167,17.3667,79.34,68,80,5.19,CD,1643876562
522,Papara,-3.9839,-38.7273,80.73,97,100,1.99,BR,1643876563
523,Pavlogradka,54.2024,73.5592,19.31,87,91,7.29,RU,1643876564
524,Abbotsford,49.058,-122.2526,38.64,97,100,3.44,CA,1643876566
525,Pathein,16.7833,94.7333,89.92,20,5,2.17,MM,1643876567
526,Solnechnyy,50.7214,136.6319,-2.31,100,100,2.08,RU,1643876568
527,La Ronge,55.1001,-105.2842,-25.38,75,0,4.61,CA,1643876569
528,Alugan,12.2188,125.4808,79.12,85,100,12.66,PH,1643876571
529,Biak,-0.9131,122.8766,82.44,70,96,1.61,ID,1643876572
530,Trat,12.5,102.5,89.8,47,97,11.86,TH,1643876573
531,Whitehorse,60.7161,-135.0538,-7.91,67,75,4.0,CA,1643876574
532,Saint-Augustin,51.226,-58.6502,30.0,96,100,18.92,CA,1643876576
533,Muravlenko,63.7898,74.523,21.06,95,100,13.02,RU,1643876577
534,Dunedin,-45.8742,170.5036,57.79,82,100,8.99,NZ,1643876578
535,Ballina,-28.8667,153.5667,68.77,99,100,20.27,AU,1643876579
536,Finschhafen,-6.6024,147.8681,81.23,81,100,14.74,PG,1643876581
537,Bathsheba,13.2167,-59.5167,75.81,78,20,13.8,BB,1643876582
538,Saint-Pierre,-21.3393,55.4781,80.24,94,75,39.12,RE,1643876583
539,Humaitá,-7.5061,-63.0208,72.97,99,100,1.7,BR,1643876584
540,Barra do Corda,-5.5,-45.25,70.14,98,26,1.23,BR,1643876586
541,Presidencia Roque Sáenz Peña,-26.7852,-60.4388,79.29,41,60,3.94,AR,1643876587
542,Cairns,-16.9167,145.7667,86.11,73,75,8.05,AU,1643876588
543,Praxédis Guerrero,31.3667,-106.0167,33.35,78,100,14.9,MX,1643876589
544,Windsor,42.3001,-83.0165,23.97,89,100,7.0,CA,1643876346
545,Bhisho,-32.8472,27.4422,70.43,83,95,5.21,ZA,1643876591
546,Assiut,27.181,31.1837,59.18,25,0,17.96,EG,1643876593
547,Marawi,7.9986,124.2928,73.65,88,100,4.16,PH,1643876594
548,Vila,42.0304,-8.1588,40.33,75,100,3.69,PT,1643876595
549,Luanda,-8.8368,13.2343,77.97,66,100,5.21,AO,1643876388
550,Havelock,34.8791,-76.9013,55.02,90,100,5.44,US,1643876471
551,Amahai,-3.3333,128.9167,84.02,70,100,0.13,ID,1643876597
552,Ransang,8.9603,117.5828,84.06,67,96,7.43,PH,1643876599
553,Campos Altos,-19.6961,-46.1714,64.31,95,100,2.24,BR,1643876600
554,Marrakesh,31.6315,-8.0083,51.87,46,11,2.3,MA,1643876570
555,Senneterre,48.3835,-77.2328,3.42,92,100,6.96,CA,1643876602
556,Warrnambool,-38.3833,142.4833,63.81,64,99,16.44,AU,1643876603
557,Tandaltī,13.0167,31.8667,83.79,10,100,11.01,SD,1643876604
558,Puerto Plata,19.7934,-70.6884,71.51,87,100,10.58,DO,1643876606
559,Ugoofaaru,5.6667,73.0,81.54,70,22,4.85,MV,1643876607
560,Orsk,51.2049,58.5668,18.5,79,0,11.18,RU,1643876608
561,Pangkalanbuun,-2.6833,111.6167,84.87,72,100,2.93,ID,1643876609
562,Trondheim,63.4305,10.3951,31.01,81,100,7.02,NO,1643876526
563,Ørnes,66.8689,13.7078,21.31,71,100,10.09,NO,1643876611
564,North Bend,43.4065,-124.2243,44.15,100,100,4.61,US,1643876612
565,Boffa,10.1667,-14.0333,72.5,90,27,3.8,GN,1643876614
